     3.05           OBSERVATION DATA    MIXED               RINEX VERSION / TYPE
TPS2RIN 1.0.28.3459 TPS-USER            20250407 105201 UTC PGM / RUN BY / DATE
Win64 build Jun 01, 2022 (c) Topcon Positioning Systems     COMMENT
SRC: 20250404_grav_20250404_194416.tps                      COMMENT
Observer            Agency                                  OBSERVER / AGENCY
O0M3X53SBGM         TPS HIPER_SR        4.8 HSR Jul,08,2022 REC # / TYPE / VERS
FW: 4.8 HSR Jul,08,2022 p3                                  COMMENT
SN: HiPer SR 1212-12575                                     COMMENT
000                 TPSHIPER_SR     NONE                    ANT # / TYPE
        1.8000        0.0000        0.0000                  ANTENNA: DELTA H/E/N
DELTA H stands for **SLANT** height here!                   COMMENT
Oro02                                                       MARKER NAME
  5383160.1199 -1596004.6131  3016159.8665                  APPROX POSITION XYZ
  2025     4     4    17    44   39.0000000     GPS         TIME OF FIRST OBS
  2025     4     4    18     0   25.0000000     GPS         TIME OF LAST OBS
     1.000                                                  INTERVAL
   947 EPOCHS                                               COMMENT
G   12 C1C L1C D1C C1W L1W D1W C2W L2W D2W C2X L2X D2X      SYS / # / OBS TYPES
R   12 C1C L1C D1C C1P L1P D1P C2P L2P D2P C2C L2C D2C      SYS / # / OBS TYPES
    15                                                      # OF SATELLITES
   G01   947   947   947   947   947   947   947   947   947PRN / # OF OBS
         947   947   947                                    PRN / # OF OBS
   G02   947   947   947   947   947   947   947   947   947PRN / # OF OBS
           0     0     0                                    PRN / # OF OBS
   G03   947   947   947   947   947   947   947   947   947PRN / # OF OBS
         947   947   947                                    PRN / # OF OBS
   G04   947   947   947   947   947   947   947   947   947PRN / # OF OBS
         947   947   947                                    PRN / # OF OBS
   G08   947   947   947   947   947   947   947   947   947PRN / # OF OBS
         947   947   947                                    PRN / # OF OBS
   G09   947   947   947   947   947   947   947   947   947PRN / # OF OBS
         947   947   947                                    PRN / # OF OBS
   G14   947   947   947   947   947   947   947   947   947PRN / # OF OBS
         947   947   947                                    PRN / # OF OBS
   G17   947   947   947   947   947   947   947   947   947PRN / # OF OBS
         947   947   947                                    PRN / # OF OBS
   R02   841   841   841   841   841   841   841   841   841PRN / # OF OBS
         841   841   841                                    PRN / # OF OBS
   R03   947   947   947   947   947   947   947   947   947PRN / # OF OBS
         947   947   947                                    PRN / # OF OBS
   R04   947   947   947   947   947   947   947   947   947PRN / # OF OBS
         947   947   947                                    PRN / # OF OBS
   R05   624   624   624   620   620   620   620   620   620PRN / # OF OBS
         619   619   619                                    PRN / # OF OBS
   R16   788   788   788   788   788   788   788   788   788PRN / # OF OBS
         788   788   788                                    PRN / # OF OBS
   R17   947   947   947   947   947   947   947   947   947PRN / # OF OBS
         947   947   947                                    PRN / # OF OBS
   R18   947   947   947   947   947   947   947   947   947PRN / # OF OBS
         947   947   947                                    PRN / # OF OBS
G L1C                                                       SYS / PHASE SHIFT
G L1W -0.25000                                              SYS / PHASE SHIFT
G L2W  0.00000                                              SYS / PHASE SHIFT
G L2X  0.25000                                              SYS / PHASE SHIFT
R L1C                                                       SYS / PHASE SHIFT
R L1P -0.25000                                              SYS / PHASE SHIFT
R L2P -0.25000                                              SYS / PHASE SHIFT
R L2C                                                       SYS / PHASE SHIFT
  7 R02 -4 R03  5 R04  6 R05  1 R16 -1 R17  4 R18 -3        GLONASS SLOT / FRQ #
                                                            GLONASS COD/PHS/BIS
    18                  GPS                                 LEAP SECONDS
                                                            END OF HEADER
> 2025 04 04 17 44 39.0000000  0 14
G02  22828432.560   119964218.228 7      1513.180    22828430.780   119964218.230 5      1513.180    22828436.060    93478630.385 5      1179.101
G03  20057098.080   105400760.625 8      1890.194    20057097.720   105400760.627 8      1890.194    20057104.100    82130486.132 8      1472.878    20057105.020    82130491.134 8      1472.878
G14  22269223.740   117025545.795 6      2148.544    22269223.080   117025545.805 2      2148.544    22269231.320    91188756.720 2      1674.190    22269231.380    91188785.755 6      1674.190
R03  19904835.220   106552142.125 7      1713.412    19904835.740   106552142.154 7      1713.412    19904845.980    82873932.626 8      1332.654    19904845.960    82873931.627 8      1332.654
G01  21286950.540   111863677.512 7      2041.182    21286949.980   111863677.514 6      2041.182    21286954.860    87166520.317 6      1590.531    21286955.480    87166521.322 8      1590.531
R04  20129759.180   107793948.463 7      5663.234    20129760.240   107793948.497 7      5663.234    20129773.380    83839796.896 8      4404.738    20129773.300    83839796.899 8      4404.738
R18  20476756.220   109306310.831 7      3038.280    20476756.820   109306310.829 7      3038.280    20476766.780    85016064.409 8      2363.107    20476766.700    85016066.415 8      2363.107
G17  22509615.840   118288832.808 7      5372.092    22509614.400   118288832.813 5      5372.092    22509620.460    92173133.103 5      4186.046    22509620.720    92173135.103 7      4186.046
G08  22780027.620   119709849.300 7      -181.582    22780026.380   119709849.310 7      -181.582    22780042.040    93280452.243 7      -141.492    22780043.000    93280457.255 7      -141.492
R17  22413638.260   119939902.793 7      1072.234    22413637.160   119939902.803 7      1072.234    22413656.380    93286664.519 7       833.960    22413655.660    93286662.515 7       833.960
R02  23641204.320   126154006.722 7     -1124.495    23641204.780   126154006.712 6     -1124.495    23641217.000    98119829.879 6      -874.607    23641217.960    98119831.878 6      -874.607
G04  22490223.360   118186920.158 7      5628.940    22490222.080   118186920.170 5      5628.940    22490234.540    92093751.267 5      4386.187    22490235.340    92093759.283 8      4386.187
R16  23403810.860   125018949.944 6      -415.898    23403807.980   125018949.945 6      -415.898    23403833.100    97237045.242 7      -323.476    23403833.500    97237046.240 7      -323.476
G09  24289508.420   127642234.171 6      6253.692    24289507.360   127642234.170 6      6253.692    24289535.700    99461558.335 6      4873.007    24289535.780    99461598.348 7      4873.007
> 2025 04 04 17 44 40.0000000  0 14
G02  22828144.520   119962705.529 7      1512.571    22828143.000   119962705.534 5      1512.571    22828148.000    93477451.661 5      1178.627
G03  20056738.620   105398871.098 8      1889.208    20056738.080   105398871.103 8      1889.208    20056744.720    82129013.778 8      1472.110    20056745.460    82129018.780 8      1472.110
G14  22268815.040   117023397.999 6      2147.437    22268814.560   117023398.011 2      2147.437    22268822.540    91187083.121 2      1673.328    22268822.440    91187112.172 6      1673.328
R03  19904515.280   106550429.542 7      1711.958    19904515.540   106550429.573 7      1711.958    19904525.980    82872600.622 8      1331.523    19904526.080    82872599.625 8      1331.523
G01  21286562.200   111861636.753 7      2040.583    21286561.500   111861636.761 6      2040.583    21286566.460    87164930.123 6      1590.065    21286567.060    87164931.129 8      1590.065
R04  20128702.060   107788285.917 8      5662.183    20128702.660   107788285.948 7      5662.183    20128715.860    83835392.700 8      4403.920    20128715.900    83835392.707 8      4403.920
R18  20476187.120   109303273.054 7      3037.588    20476187.860   109303273.060 7      3037.588    20476197.720    85013701.702 8      2362.569    20476197.500    85013703.712 8      2362.569
G17  22508593.600   118283461.097 7      5371.548    22508592.200   118283461.100 5      5371.548    22508598.180    92168947.367 5      4185.622    22508598.640    92168949.369 7      4185.622
G08  22780062.340   119710031.400 7      -182.217    22780061.080   119710031.405 7      -182.217    22780076.820    93280594.131 7      -141.988    22780077.580    93280599.137 7      -141.988
R17  22413437.840   119938831.108 7      1071.498    22413436.960   119938831.115 7      1071.498    22413456.000    93285830.984 7       833.387    22413455.140    93285828.982 7       833.387
R02  23641415.060   126155131.844 7     -1125.228    23641415.740   126155131.834 6     -1125.228    23641427.580    98120704.974 6      -875.177    23641428.740    98120706.984 6      -875.177
G04  22489152.120   118181291.752 7      5628.387    22489151.120   118181291.762 5      5628.387    22489163.460    92089365.507 5      4385.756    22489164.260    92089373.516 8      4385.756
R16  23403888.640   125019366.240 6      -416.480    23403886.020   125019366.252 6      -416.480    23403911.060    97237369.011 7      -323.929    23403911.380    97237370.009 7      -323.929
G09  24288318.460   127635980.818 6      6253.280    24288317.500   127635980.820 6      6253.280    24288345.360    99456685.627 6      4872.686    24288345.960    99456725.632 7      4872.686
> 2025 04 04 17 44 41.0000000  0 14
G02  22827856.720   119961192.670 7      1512.969    22827855.100   119961192.673 5      1512.969    22827860.260    93476272.812 5      1178.937
G03  20056379.020   105396981.849 8      1889.163    20056378.700   105396981.854 8      1889.163    20056385.080    82127541.644 8      1472.075    20056385.940    82127546.644 8      1472.075
G14  22268406.260   117021250.542 6      2147.328    22268405.880   117021250.554 2      2147.328    22268413.860    91185409.784 2      1673.243    22268413.060    91185438.837 6      1673.243
R03  19904195.600   106548717.593 7      1711.632    19904196.040   106548717.621 7      1711.632    19904206.300    82871269.115 8      1331.269    19904206.180    82871268.118 8      1331.269
G01  21286173.840   111859595.889 7      2040.953    21286173.140   111859595.894 6      2040.953    21286177.960    87163339.842 6      1590.353    21286178.540    87163340.849 8      1590.353
R04  20127644.720   107782623.877 8      5661.881    20127645.220   107782623.909 7      5661.881    20127658.600    83830988.906 8      4403.686    20127658.500    83830988.908 8      4403.686
R18  20475618.140   109300235.290 7      3037.825    20475618.820   109300235.286 7      3037.825    20475628.680    85011338.999 8      2362.753    20475628.420    85011341.007 8      2362.753
G17  22507571.360   118278089.379 7      5371.744    22507570.060   118278089.381 6      5371.744    22507576.080    92164761.622 5      4185.775    22507576.400    92164763.629 7      4185.775
G08  22780097.020   119710213.550 7      -182.049    22780095.760   119710213.555 7      -182.049    22780111.400    93280736.064 7      -141.856    22780112.420    93280741.076 7      -141.856
R17  22413237.320   119937759.471 7      1071.551    22413236.600   119937759.491 7      1071.551    22413255.840    93284997.503 7       833.429    22413255.300    93284995.503 7       833.429
R02  23641626.320   126156257.100 7     -1125.250    23641626.720   126156257.093 6     -1125.250    23641638.480    98121580.188 6      -875.195    23641639.220    98121582.196 6      -875.195
G04  22488081.180   118175663.362 7      5628.553    22488080.140   118175663.369 5      5628.553    22488092.540    92084979.760 5      4385.886    22488092.960    92084987.770 8      4385.886
R16  23403966.540   125019782.403 6      -416.074    23403963.980   125019782.417 6      -416.074    23403988.800    97237692.668 7      -323.613    23403989.720    97237693.664 7      -323.613
G09  24287128.400   127629727.186 6      6253.826    24287127.400   127629727.183 6      6253.826    24287155.300    99451812.686 6      4873.111    24287155.740    99451852.682 7      4873.111
> 2025 04 04 17 44 42.0000000  0 14
G02  22827568.820   119959679.798 7      1512.794    22827567.220   119959679.803 5      1512.794    22827572.300    93475093.952 5      1178.801
G03  20056019.760   105395093.024 8      1888.497    20056019.220   105395093.029 8      1888.497    20056025.660    82126069.837 8      1471.556    20056026.400    82126074.839 8      1471.556
G14  22267997.660   117019103.557 6      2146.696    22267997.180   117019103.573 2      2146.696    22268005.260    91183736.815 2      1672.750    22268005.340    91183765.848 6      1672.750
R03  19903876.060   106547006.438 7      1710.660    19903876.240   106547006.459 7      1710.660    19903886.620    82869938.211 8      1330.513    19903886.760    82869937.214 8      1330.513
G01  21285785.440   111857555.075 7      2040.668    21285784.840   111857555.075 6      2040.668    21285789.500    87161749.601 6      1590.131    21285790.120    87161750.602 8      1590.131
R04  20126587.500   107776962.432 7      5660.995    20126587.880   107776962.460 7      5660.995    20126601.340    83826585.564 8      4402.996    20126601.320    83826585.566 8      4402.996
R18  20475049.020   109297197.671 7      3037.350    20475049.540   109297197.666 7      3037.350    20475059.640    85008976.412 8      2362.383    20475059.460    85008978.421 8      2362.383
G17  22506549.280   118272717.763 7      5371.430    22506547.820   118272717.765 6      5371.430    22506554.020    92160575.958 6      4185.530    22506554.240    92160577.958 7      4185.530
G08  22780131.920   119710395.934 7      -182.681    22780130.520   119710395.942 7      -182.681    22780146.100    93280878.183 7      -142.349    22780146.900    93280883.201 7      -142.349
R17  22413037.440   119936688.018 7      1071.223    22413036.840   119936688.036 7      1071.223    22413055.480    93284164.137 7       833.173    22413054.860    93284162.133 7       833.173
R02  23641837.360   126157382.594 7     -1125.754    23641837.240   126157382.589 6     -1125.754    23641849.300    98122455.564 6      -875.586    23641850.480    98122457.582 6      -875.586
G04  22487010.040   118170035.122 7      5628.058    22487009.020   118170035.129 5      5628.058    22487021.440    92080594.135 5      4385.500    22487021.840    92080602.151 8      4385.500
R16  23404044.920   125020198.578 6      -416.321    23404041.940   125020198.582 6      -416.321    23404066.260    97238016.342 7      -323.805    23404067.340    97238017.338 7      -323.805
G09  24285938.620   127623473.384 6      6253.737    24285937.420   127623473.378 6      6253.737    24285965.340    99446939.614 6      4873.042    24285965.580    99446979.606 6      4873.042
> 2025 04 04 17 44 43.0000000  0 14
G02  22827280.980   119958166.955 7      1512.952    22827279.200   119958166.962 5      1512.952    22827284.500    93473915.120 5      1178.923
G03  20055660.360   105393204.625 7      1888.315    20055659.880   105393204.629 8      1888.315    20055666.300    82124598.360 8      1471.414    20055667.120    82124603.358 8      1471.414
G14  22267589.540   117016957.091 6      2146.361    22267588.640   117016957.106 2      2146.361    22267596.760    91182064.246 2      1672.489    22267597.120    91182093.279 6      1672.489
R03  19903556.400   106545296.084 8      1710.075    19903556.880   106545296.105 7      1710.075    19903567.260    82868607.941 8      1330.059    19903567.140    82868606.942 8      1330.059
G01  21285397.200   111855514.311 7      2040.866    21285396.500   111855514.311 6      2040.866    21285401.380    87160159.397 6      1590.285    21285401.720    87160160.401 8      1590.285
R04  20125530.440   107771301.565 7      5660.659    20125530.740   107771301.601 7      5660.659    20125543.940    83822182.684 8      4402.735    20125544.180    83822182.684 8      4402.735
R18  20474480.180   109294160.211 7      3037.371    20474480.460   109294160.209 7      3037.371    20474490.740    85006613.944 8      2362.400    20474490.580    85006615.950 8      2362.400
G17  22505527.380   118267346.263 7      5371.627    22505525.800   118267346.268 6      5371.627    22505531.800    92156390.384 5      4185.683    22505531.960    92156392.382 7      4185.683
G08  22780166.860   119710578.534 7      -182.643    22780165.280   119710578.541 7      -182.643    22780181.020    93281020.458 7      -142.319    22780181.640    93281025.472 7      -142.319
R17  22412837.260   119935616.785 7      1071.237    22412836.680   119935616.800 7      1071.237    22412855.180    93283330.947 7       833.184    22412854.560    93283328.945 7       833.184
R02  23642048.240   126158508.312 7     -1125.696    23642048.320   126158508.304 6     -1125.696    23642060.280    98123331.151 6      -875.541    23642061.120    98123333.154 6      -875.541
G04  22485939.120   118164407.044 7      5628.167    22485938.000   118164407.052 5      5628.167    22485950.380    92076208.633 5      4385.585    22485951.040    92076216.636 8      4385.585
R16  23404122.720   125020614.797 6      -415.992    23404119.920   125020614.793 6      -415.992    23404144.320    97238340.028 7      -323.549    23404145.120    97238341.013 7      -323.549
G09  24284747.880   127617219.521 6      6254.015    24284747.460   127617219.521 6      6254.015    24284775.560    99442066.505 6      4873.259    24284775.180    99442106.511 7      4873.259
> 2025 04 04 17 44 44.0000000  0 14
G02  22826993.160   119956654.146 7      1512.748    22826991.320   119956654.153 5      1512.748    22826996.620    93472736.305 5      1178.765
G03  20055301.180   105391316.685 7      1887.693    20055300.560   105391316.692 8      1887.693    20055307.020    82123127.247 8      1470.929    20055307.800    82123132.247 8      1470.929
G14  22267182.260   117014811.155 6      2145.498    22267180.220   117014811.170 2      2145.498    22267188.360    91180392.090 2      1671.817    22267188.180    91180421.113 6      1671.817
R03  19903237.080   106543586.547 8      1709.079    19903237.440   106543586.572 7      1709.079    19903247.760    82867278.311 8      1329.283    19903247.740    82867277.319 8      1329.283
G01  21285008.900   111853473.621 7      2040.664    21285008.140   111853473.623 6      2040.664    21285013.080    87158569.255 6      1590.128    21285013.400    87158570.260 8      1590.128
R04  20124473.420   107765641.354 8      5659.868    20124473.460   107765641.388 7      5659.868    20124487.040    83817780.302 8      4402.119    20124486.960    83817780.304 8      4402.119
R18  20473911.040   109291122.923 7      3037.170    20473911.500   109291122.915 7      3037.170    20473921.760    85004251.608 8      2362.243    20473921.580    85004253.617 8      2362.243
G17  22504504.900   118261974.926 7      5371.306    22504503.580   118261974.931 6      5371.306    22504509.540    92152204.932 6      4185.434    22504509.940    92152206.933 7      4185.434
G08  22780201.800   119710761.367 7      -182.997    22780200.200   119710761.372 7      -182.997    22780215.540    93281162.921 7      -142.595    22780216.680    93281167.934 7      -142.595
R17  22412637.080   119934545.793 7      1070.854    22412636.700   119934545.819 7      1070.854    22412655.080    93282497.955 7       832.886    22412654.160    93282495.960 7       832.886
R02  23642259.160   126159634.320 7     -1126.092    23642259.600   126159634.321 6     -1126.092    23642271.340    98124206.929 6      -875.849    23642272.340    98124208.937 6      -875.849
G04  22484867.860   118158779.143 7      5627.819    22484867.040   118158779.151 5      5627.819    22484879.480    92071823.267 5      4385.314    22484880.160    92071831.279 8      4385.314
R16  23404200.740   125021031.026 6      -416.280    23404197.320   125021031.038 6      -416.280    23404222.300    97238663.768 7      -323.773    23404222.860    97238664.762 7      -323.773
G09  24283557.860   127610965.477 6      6254.309    24283557.320   127610965.474 6      6254.309    24283585.420    99437193.244 6      4873.487    24283585.340    99437233.251 7      4873.487
> 2025 04 04 17 44 45.0000000  0 14
G02  22826705.140   119955141.147 7      1512.988    22826703.340   119955141.152 5      1512.988    22826708.840    93471557.348 5      1178.952
G03  20054942.060   105389428.989 7      1887.463    20054941.380   105389428.992 8      1887.463    20054947.860    82121656.313 8      1470.751    20054948.660    82121661.313 8      1470.751
G14  22266773.580   117012665.450 6      2145.687    22266772.000   117012665.463 2      2145.687    22266780.300    91178720.115 2      1671.964    22266780.040    91178749.145 6      1671.964
R03  19902918.100   106541877.619 7      1708.537    19902918.040   106541877.645 7      1708.537    19902928.580    82865949.154 8      1328.862    19902928.500    82865948.155 8      1328.862
G01  21284620.560   111851432.785 7      2040.845    21284619.900   111851432.793 6      2040.845    21284624.620    87156979.002 6      1590.269    21284625.260    87156980.009 8      1590.269
R04  20123416.600   107759981.518 7      5659.571    20123416.520   107759981.554 7      5659.571    20123430.140    83813378.221 8      4401.888    20123430.080    83813378.223 8      4401.888
R18  20473342.060   109288085.615 7      3037.234    20473342.440   109288085.614 7      3037.234    20473352.680    85001889.271 8      2362.293    20473352.520    85001891.275 8      2362.293
G17  22503483.020   118256603.531 7      5371.336    22503481.500   118256603.533 6      5371.336    22503487.540    92148019.433 6      4185.457    22503487.920    92148021.430 7      4185.457
G08  22780236.500   119710944.234 7      -182.989    22780234.980   119710944.242 7      -182.989    22780250.360    93281305.407 7      -142.589    22780251.420    93281310.417 7      -142.589
R17  22412436.820   119933474.825 7      1070.887    22412436.660   119933474.848 7      1070.887    22412454.480    93281664.974 7       832.912    22412454.340    93281662.974 7       832.912
R02  23642470.000   126160760.352 7     -1126.153    23642470.740   126160760.345 6     -1126.153    23642481.760    98125082.751 6      -875.897    23642483.080    98125084.754 6      -875.897
G04  22483796.860   118153151.202 7      5627.919    22483796.120   118153151.207 5      5627.919    22483808.580    92067437.877 5      4385.391    22483808.960    92067445.887 8      4385.391
R16  23404278.440   125021447.085 6      -416.148    23404275.140   125021447.091 6      -416.148    23404300.620    97238987.340 7      -323.671    23404300.600    97238988.330 7      -323.671
G09  24282367.580   127604711.210 6      6254.395    24282367.020   127604711.215 6      6254.395    24282395.220    99432319.828 6      4873.554    24282395.560    99432359.843 7      4873.554
> 2025 04 04 17 44 46.0000000  0 14
G02  22826417.260   119953628.349 7      1512.755    22826415.500   119953628.356 5      1512.755    22826420.860    93470378.548 5      1178.770
G03  20054582.920   105387541.914 8      1886.806    20054582.260   105387541.921 8      1886.806    20054588.780    82120185.879 8      1470.238    20054589.660    82120190.877 8      1470.238
G14  22266365.300   117010520.511 6      2144.811    22266363.780   117010520.529 2      2144.811    22266371.900    91177048.733 2      1671.281    22266371.860    91177077.776 6      1671.281
R03  19902598.800   106540169.690 7      1707.530    19902598.960   106540169.721 7      1707.530    19902609.500    82864620.773 8      1328.079    19902609.500    82864619.778 8      1328.079
G01  21284232.300   111849392.232 7      2040.465    21284231.540   111849392.236 6      2040.465    21284236.380    87155388.962 6      1589.973    21284237.020    87155389.963 8      1589.973
R04  20122359.660   107754322.495 7      5658.732    20122359.860   107754322.529 7      5658.732    20122373.320    83808976.770 8      4401.236    20122373.240    83808976.770 8      4401.236
R18  20472773.180   109285048.668 7      3036.877    20472773.600   109285048.669 7      3036.877    20472783.960    84999527.207 8      2362.015    20472783.660    84999529.213 8      2362.015
G17  22502460.780   118251232.456 7      5370.939    22502459.520   118251232.461 6      5370.939    22502465.360    92143834.185 6      4185.148    22502465.600    92143836.183 7      4185.148
G08  22780271.140   119711127.512 7      -183.321    22780269.900   119711127.519 7      -183.321    22780285.320    93281448.214 7      -142.848    22780286.080    93281453.221 7      -142.848
R17  22412236.840   119932404.290 7      1070.255    22412236.700   119932404.310 7      1070.255    22412254.680    93280832.333 7       832.420    22412253.880    93280830.328 7       832.420
R02  23642681.060   126161886.796 7     -1126.622    23642682.000   126161886.781 6     -1126.622    23642692.780    98125958.861 6      -876.261    23642694.000    98125960.867 6      -876.261
G04  22482725.900   118147523.648 7      5627.441    22482725.380   118147523.655 5      5627.441    22482737.700    92063052.782 5      4385.019    22482737.960    92063060.790 8      4385.019
R16  23404356.400   125021863.386 6      -416.390    23404352.800   125021863.398 6      -416.390    23404378.380    97239311.111 6      -323.859    23404378.540    97239312.109 6      -323.859
G09  24281177.660   127598456.961 6      6254.374    24281176.600   127598456.963 6      6254.374    24281204.580    99427446.412 6      4873.538    24281204.500    99427486.443 7      4873.538
> 2025 04 04 17 44 47.0000000  0 14
G02  22826129.700   119952115.330 7      1512.908    22826127.800   119952115.337 5      1512.908    22826132.960    93469199.576 5      1178.889
G03  20054223.860   105385655.044 8      1886.582    20054223.140   105385655.048 8      1886.582    20054229.660    82118715.590 8      1470.064    20054230.560    82118720.586 8      1470.064
G14  22265956.980   117008375.836 6      2144.248    22265955.680   117008375.857 2      2144.248    22265963.780    91175377.560 2      1670.843    22265964.620    91175406.611 6      1670.843
R03  19902279.720   106538462.304 7      1706.931    19902280.160   106538462.335 7      1706.931    19902290.580    82863292.813 8      1327.613    19902290.520    82863291.812 8      1327.613
G01  21283843.960   111847351.475 7      2040.601    21283843.240   111847351.480 6      2040.601    21283847.960    87153798.764 6      1590.079    21283848.480    87153799.770 8      1590.079
R04  20121303.040   107748663.845 7      5658.287    20121303.080   107748663.876 7      5658.287    20121316.360    83804575.608 8      4400.890    20121316.440    83804575.608 8      4400.890
R18  20472204.200   109282011.628 7      3036.911    20472204.540   109282011.624 7      3036.911    20472214.920    84997165.067 8      2362.042    20472214.600    84997167.073 8      2362.042
G17  22501438.620   118245861.245 7      5371.111    22501437.280   118245861.250 6      5371.111    22501443.280    92139648.829 6      4185.281    22501443.320    92139650.830 7      4185.281
G08  22780306.380   119711310.797 7      -183.524    22780304.900   119711310.807 7      -183.524    22780320.040    93281591.032 7      -143.006    22780320.620    93281596.040 7      -143.006
R17  22412036.780   119931333.680 7      1070.446    22412036.620   119931333.695 7      1070.446    22412054.640    93279999.639 7       832.569    22412053.860    93279997.637 7       832.569
R02  23642892.260   126163013.194 7     -1126.519    23642893.100   126163013.195 6     -1126.519    23642904.000    98126834.959 6      -876.181    23642904.980    98126836.960 6      -876.181
G04  22481654.940   118141895.986 7      5627.582    22481654.560   118141895.988 5      5627.582    22481666.800    92058667.610 5      4385.129    22481666.980    92058675.619 8      4385.129
R16  23404434.240   125022279.458 6      -416.025    23404431.540   125022279.462 6      -416.025    23404456.580    97239634.692 7      -323.575    23404456.780    97239635.683 7      -323.575
G09  24279987.520   127592202.381 6      6254.519    24279986.320   127592202.388 6      6254.519    24280014.040    99422572.738 6      4873.651    24280014.260    99422612.751 6      4873.651
> 2025 04 04 17 44 48.0000000  0 14
G02  22825841.700   119950602.229 7      1513.045    22825839.700   119950602.236 5      1513.045    22825845.000    93468020.538 5      1178.996
G03  20053864.780   105383768.512 8      1886.288    20053864.180   105383768.514 8      1886.288    20053870.620    82117245.570 8      1469.834    20053871.540    82117250.570 8      1469.834
G14  22265548.820   117006231.514 6      2144.027    22265547.600   117006231.537 2      2144.027    22265555.560    91173706.663 2      1670.670    22265555.200    91173735.706 6      1670.670
R03  19901960.960   106536755.623 7      1706.227    19901961.040   106536755.651 7      1706.227    19901971.800    82861965.398 8      1327.065    19901971.660    82861964.399 8      1327.065
G01  21283455.580   111845310.682 7      2040.661    21283454.900   111845310.690 6      2040.661    21283459.680    87152208.540 6      1590.125    21283460.080    87152209.546 8      1590.125
R04  20120246.480   107743005.739 8      5657.699    20120246.500   107743005.772 7      5657.699    20120259.860    83800174.873 8      4400.432    20120259.780    83800174.877 8      4400.432
R18  20471635.480   109278974.676 7      3036.770    20471635.600   109278974.671 7      3036.770    20471646.040    84994802.993 8      2361.932    20471645.820    84994804.995 8      2361.932
G17  22500416.240   118240490.078 7      5371.107    22500415.220   118240490.081 6      5371.107    22500421.020    92135463.515 6      4185.278    22500421.240    92135465.514 7      4185.278
G08  22780341.120   119711494.189 7      -183.527    22780339.800   119711494.194 7      -183.527    22780354.840    93281733.925 7      -143.008    22780355.500    93281738.933 7      -143.008
R17  22411836.500   119930263.226 7      1070.261    22411836.520   119930263.241 7      1070.261    22411854.600    93279167.061 7       832.425    22411853.780    93279165.064 7       832.425
R02  23643103.420   126164139.832 7     -1126.858    23643104.520   126164139.817 6     -1126.858    23643115.080    98127711.233 6      -876.445    23643115.700    98127713.226 6      -876.445
G04  22480584.140   118136268.431 7      5627.396    22480583.640   118136268.434 5      5627.396    22480596.040    92054282.519 5      4384.984    22480596.460    92054290.524 8      4384.984
R16  23404512.100   125022695.447 6      -415.869    23404509.940   125022695.445 6      -415.869    23404534.400    97239958.214 7      -323.454    23404534.260    97239959.201 7      -323.454
G09  24278796.800   127585947.588 6      6254.795    24278796.080   127585947.590 6      6254.795    24278823.660    99417698.892 6      4873.866    24278823.600    99417738.907 6      4873.866
> 2025 04 04 17 44 49.0000000  0 14
G02  22825553.620   119949089.262 7      1513.069    22825551.680   119949089.270 5      1513.069    22825557.140    93466841.609 5      1179.015
G03  20053505.900   105381882.559 8      1885.786    20053505.280   105381882.561 8      1885.786    20053511.760    82115776.000 8      1469.443    20053512.600    82115780.998 8      1469.443
G14  22265141.640   117004087.879 6      2143.466    22265139.740   117004087.903 2      2143.466    22265147.620    91172036.301 2      1670.234    22265147.200    91172065.340 6      1670.234
R03  19901642.460   106535049.875 8      1705.431    19901642.580   106535049.895 7      1705.431    19901653.280    82860638.703 8      1326.447    19901653.040    82860637.704 8      1326.447
G01  21283067.480   111843270.071 7      2040.675    21283066.500   111843270.075 6      2040.675    21283071.380    87150618.457 6      1590.136    21283071.960    87150619.467 8      1590.136
R04  20119189.980   107737348.398 8      5657.076    20119189.920   107737348.413 7      5657.076    20119203.420    83795774.715 8      4399.948    20119203.280    83795774.717 8      4399.948
R18  20471066.780   109275938.012 7      3036.708    20471066.520   109275938.010 7      3036.708    20471077.160    84992441.149 8      2361.884    20471076.980    84992443.151 8      2361.884
G17  22499394.400   118235119.177 7      5370.934    22499393.280   118235119.180 6      5370.934    22499399.080    92131278.404 5      4185.143    22499399.320    92131280.404 7      4185.143
G08  22780376.060   119711677.945 7      -183.715    22780374.680   119711677.950 7      -183.715    22780389.920    93281877.109 7      -143.155    22780390.520    93281882.113 7      -143.155
R17  22411636.540   119929193.106 7      1070.090    22411636.960   119929193.116 7      1070.090    22411654.480    93278334.740 7       832.292    22411654.020    93278332.734 7       832.292
R02  23643314.540   126165266.828 7     -1127.075    23643315.300   126165266.812 6     -1127.075    23643325.940    98128587.797 6      -876.614    23643327.180    98128589.803 6      -876.614
G04  22479513.300   118130641.132 7      5627.346    22479512.700   118130641.137 5      5627.346    22479525.240    92049897.628 5      4384.945    22479525.200    92049905.636 8      4384.945
R16  23404589.840   125023111.607 6      -416.004    23404587.640   125023111.613 6      -416.004    23404612.300    97240281.877 7      -323.559    23404612.220    97240282.862 7      -323.559
G09  24277607.060   127579692.801 6      6254.912    24277605.960   127579692.800 6      6254.912    24277633.520    99412825.056 6      4873.958    24277633.960    99412865.060 6      4873.958
> 2025 04 04 17 44 50.0000000  0 14
G02  22825265.600   119947576.414 7      1512.733    22825263.580   119947576.424 5      1512.733    22825269.180    93465662.768 5      1178.753
G03  20053147.000   105379997.133 8      1885.002    20053146.500   105379997.133 8      1885.002    20053153.000    82114306.844 8      1468.832    20053153.840    82114311.844 8      1468.832
G14  22264733.620   117001944.829 6      2142.567    22264731.840   117001944.852 2      2142.567    22264739.900    91170366.394 2      1669.533    22264739.300    91170395.422 6      1669.533
R03  19901323.720   106533345.040 7      1704.219    19901324.240   106533345.060 7      1704.219    19901334.780    82859312.724 8      1325.504    19901334.460    82859311.723 8      1325.504
G01  21282679.200   111841229.645 7      2040.101    21282678.160   111841229.653 6      2040.101    21282683.200    87149028.517 6      1589.689    21282683.660    87149029.523 8      1589.689
R04  20118133.580   107731691.777 7      5656.050    20118133.720   107731691.800 7      5656.050    20118147.240    83791375.136 8      4399.150    20118147.020    83791375.138 8      4399.150
R18  20470497.940   109272901.623 7      3036.126    20470497.580   109272901.621 7      3036.126    20470508.360    84990079.517 8      2361.431    20470508.280    84990081.521 8      2361.431
G17  22498372.600   118229748.497 7      5370.469    22498371.260   118229748.494 5      5370.469    22498377.060    92127093.462 5      4184.781    22498377.660    92127095.458 7      4184.781
G08  22780411.000   119711862.042 7      -184.373    22780409.900   119711862.044 7      -184.373    22780424.880    93282020.553 7      -143.667    22780425.440    93282025.564 7      -143.667
R17  22411436.440   119928123.320 7      1069.462    22411437.040   119928123.330 7      1069.462    22411454.940    93277502.676 7       831.804    22411454.040    93277500.674 7       831.804
R02  23643525.980   126166394.168 7     -1127.671    23643526.360   126166394.152 6     -1127.671    23643537.220    98129464.626 6      -877.078    23643538.120    98129466.629 6      -877.078
G04  22478442.680   118125014.124 7      5626.778    22478441.820   118125014.131 5      5626.778    22478454.540    92045512.965 5      4384.502    22478454.720    92045520.973 8      4384.502
R16  23404668.060   125023527.919 6      -416.453    23404665.280   125023527.923 6      -416.453    23404689.600    97240605.652 7      -323.908    23404690.200    97240606.638 7      -323.908
G09  24276416.880   127573437.989 6      6254.718    24276415.780   127573437.984 6      6254.718    24276443.500    99407951.193 6      4873.806    24276443.920    99407991.206 6      4873.806
> 2025 04 04 17 44 51.0000000  0 14
G02  22824977.620   119946063.623 7      1513.050    22824975.560   119946063.633 5      1513.050    22824981.460    93464483.970 5      1179.000
G03  20052788.440   105378112.181 8      1884.937    20052787.820   105378112.186 8      1884.937    20052794.320    82112838.058 8      1468.782    20052795.260    82112843.056 8      1468.782
G14  22264326.120   116999802.272 6      2142.573    22264324.220   116999802.293 2      2142.573    22264332.220    91168696.871 2      1669.538    22264332.020    91168725.908 6      1669.538
R03  19901005.660   106531641.029 8      1703.845    19901005.880   106531641.058 7      1703.845    19901016.480    82857987.397 8      1325.213    19901016.380    82857986.394 8      1325.213
G01  21282290.900   111839189.278 7      2040.548    21282290.100   111839189.285 6      2040.548    21282295.000    87147438.625 6      1590.037    21282295.280    87147439.632 8      1590.037
R04  20117077.480   107726035.799 7      5655.852    20117077.640   107726035.830 7      5655.852    20117090.960    83786976.056 8      4398.996    20117090.720    83786976.060 8      4398.996
R18  20469929.140   109269865.420 7      3036.336    20469928.600   109269865.413 7      3036.336    20469939.640    84987718.025 8      2361.594    20469939.480    84987720.031 8      2361.594
G17  22497350.520   118224377.972 7      5370.659    22497349.300   118224377.971 6      5370.659    22497355.160    92122908.647 6      4184.929    22497355.440    92122910.652 7      4184.929
G08  22780446.000   119712046.394 7      -184.340    22780445.060   119712046.404 7      -184.340    22780459.760    93282164.204 7      -143.641    22780460.760    93282169.210 7      -143.641
R17  22411236.920   119927053.781 7      1069.663    22411237.040   119927053.788 7      1069.663    22411254.880    93276670.806 7       831.960    22411254.220    93276668.804 7       831.960
R02  23643737.480   126167521.782 7     -1127.574    23643738.160   126167521.772 6     -1127.574    23643748.400    98130341.672 6      -877.002    23643749.420    98130343.686 6      -877.002
G04  22477371.860   118119387.329 7      5626.945    22477370.900   118119387.334 5      5626.945    22477383.640    92041128.462 5      4384.632    22477383.700    92041136.461 8      4384.632
R16  23404746.100   125023944.300 6      -416.163    23404743.140   125023944.301 6      -416.163    23404767.600    97240929.494 7      -323.682    23404768.120    97240930.480 7      -323.682
G09  24275226.700   127567183.097 6      6255.165    24275225.500   127567183.099 6      6255.165    24275253.280    99403077.275 6      4874.155    24275253.400    99403117.288 6      4874.155
> 2025 04 04 17 44 52.0000000  0 14
G02  22824689.780   119944550.730 7      1512.859    22824687.820   119944550.732 5      1512.859    22824693.700    93463305.090 5      1178.851
G03  20052429.980   105376227.560 8      1884.347    20052429.160   105376227.562 8      1884.347    20052435.640    82111369.524 8      1468.322    20052436.480    82111374.522 8      1468.322
G14  22263918.360   116997660.157 6      2141.782    22263916.660   116997660.177 2      2141.782    22263924.600    91167027.696 2      1668.921    22263924.300    91167056.735 6      1668.921
R03  19900687.280   106529937.744 8      1702.843    19900687.820   106529937.772 7      1702.843    19900698.280    82856662.622 8      1324.434    19900698.040    82856661.621 8      1324.434
G01  21281902.640   111837148.887 7      2040.269    21281901.720   111837148.894 6      2040.269    21281906.680    87145848.716 6      1589.820    21281907.260    87145849.721 8      1589.820
R04  20116021.540   107720380.343 7      5655.113    20116021.620   107720380.374 7      5655.113    20116034.820    83782577.377 8      4398.421    20116034.740    83782577.379 8      4398.421
R18  20469360.520   109266829.279 7      3035.965    20469360.120   109266829.278 7      3035.965    20469370.780    84985356.592 8      2361.306    20469370.700    84985358.596 8      2361.306
G17  22496328.540   118219007.465 7      5370.390    22496327.260   118219007.469 6      5370.390    22496333.000    92118723.843 6      4184.720    22496333.320    92118725.845 7      4184.720
G08  22780481.160   119712230.840 7      -184.549    22780480.140   119712230.845 7      -184.549    22780495.020    93282307.918 7      -143.804    22780495.900    93282312.927 7      -143.804
R17  22411036.740   119925984.327 7      1069.314    22411037.280   119925984.337 7      1069.314    22411054.940    93275839.004 7       831.689    22411054.500    93275837.007 7       831.689
R02  23643949.060   126168649.501 7     -1127.880    23643948.900   126168649.480 6     -1127.880    23643959.780    98131218.780 6      -877.240    23643960.680    98131220.792 6      -877.240
G04  22476301.360   118113760.568 7      5626.655    22476300.120   118113760.575 5      5626.655    22476312.800    92036743.987 5      4384.407    22476313.040    92036751.993 8      4384.407
R16  23404824.120   125024360.602 6      -416.314    23404820.920   125024360.627 6      -416.314    23404845.920    97241253.266 7      -323.800    23404846.040    97241254.259 7      -323.800
G09  24274035.900   127560927.960 6      6255.301    24274034.920   127560927.967 6      6255.301    24274062.880    99398203.167 6      4874.260    24274063.500    99398243.182 7      4874.260
> 2025 04 04 17 44 53.0000000  0 14
G02  22824402.000   119943037.815 7      1512.986    22824399.860   119943037.820 5      1512.986    22824405.780    93462126.202 5      1178.950
G03  20052071.300   105374343.338 8      1884.145    20052070.660   105374343.340 8      1884.145    20052077.120    82109901.303 8      1468.165    20052077.720    82109906.299 8      1468.165
G14  22263510.740   116995518.496 6      2141.418    22263509.140   116995518.519 2      2141.418    22263517.180    91165358.870 2      1668.637    22263517.140    91165387.919 6      1668.637
R03  19900369.420   106528235.235 8      1702.175    19900369.700   106528235.255 7      1702.175    19900380.340    82855338.444 8      1323.914    19900380.020    82855337.441 8      1323.914
G01  21281514.380   111835108.506 7      2040.367    21281513.600   111835108.514 6      2040.367    21281518.420    87144258.815 6      1589.896    21281518.900    87144259.819 8      1589.896
R04  20114965.260   107714725.476 7      5654.640    20114965.560   107714725.507 7      5654.640    20114978.720    83778179.163 8      4398.053    20114978.360    83778179.170 8      4398.053
R18  20468791.520   109263793.301 7      3035.893    20468791.160   109263793.294 7      3035.893    20468802.020    84982995.276 8      2361.250    20468801.820    84982997.280 8      2361.250
G17  22495306.600   118213637.068 7      5370.340    22495305.260   118213637.070 6      5370.340    22495310.960    92114539.126 6      4184.680    22495311.160    92114541.123 7      4184.680
G08  22780516.420   119712415.508 7      -184.720    22780515.220   119712415.512 7      -184.720    22780530.140    93282451.811 7      -143.938    22780530.920    93282456.815 7      -143.938
R17  22410836.900   119924915.050 7      1069.199    22410837.600   119924915.060 7      1069.199    22410855.240    93275007.346 7       831.600    22410854.600    93275005.344 7       831.600
R02  23644160.260   126169777.414 7     -1127.990    23644160.220   126169777.399 6     -1127.990    23644171.440    98132096.048 6      -877.325    23644172.380    98132098.052 6      -877.325
G04  22475230.520   118108133.938 7      5626.732    22475229.300   118108133.946 5      5626.732    22475242.060    92032359.615 5      4384.466    22475242.300    92032367.622 8      4384.466
R16  23404902.220   125024776.941 6      -416.295    23404898.860   125024776.960 6      -416.295    23404923.920    97241577.058 7      -323.785    23404923.780    97241578.045 7      -323.785
G09  24272845.520   127554672.725 6      6255.289    24272844.480   127554672.730 6      6255.289    24272872.640    99393328.977 6      4874.251    24272872.760    99393368.988 7      4874.251
> 2025 04 04 17 44 54.0000000  0 14
G02  22824114.200   119941524.977 7      1512.880    22824112.060   119941524.980 5      1512.880    22824117.960    93460947.366 5      1178.868
G03  20051712.860   105372459.621 8      1883.581    20051712.080   105372459.625 8      1883.581    20051718.680    82108433.475 8      1467.726    20051719.300    82108438.473 8      1467.726
G14  22263102.740   116993377.395 6      2140.861    22263101.660   116993377.418 2      2140.861    22263109.540    91163690.481 2      1668.203    22263109.220    91163719.516 6      1668.203
R03  19900051.660   106526533.542 7      1701.460    19900051.900   106526533.560 7      1701.460    19900062.480    82854014.907 8      1323.357    19900062.160    82854013.902 8      1323.357
G01  21281126.120   111833068.234 7      2040.391    21281125.300   111833068.236 6      2040.391    21281130.160    87142668.992 6      1589.915    21281130.720    87142669.994 8      1589.915
R04  20113909.240   107709071.281 7      5654.033    20113909.720   107709071.310 7      5654.033    20113922.940    83773781.463 8      4397.581    20113922.720    83773781.463 8      4397.581
R18  20468223.160   109260757.529 7      3035.783    20468222.420   109260757.527 7      3035.783    20468233.300    84980634.121 8      2361.165    20468233.360    84980636.128 8      2361.165
G17  22494284.520   118208266.837 7      5370.229    22494283.360   118208266.836 6      5370.229    22494289.260    92110354.533 6      4184.594    22494289.520    92110356.533 7      4184.594
G08  22780551.540   119712600.432 7      -184.931    22780550.440   119712600.445 7      -184.931    22780565.480    93282595.906 7      -144.102    22780566.140    93282600.912 7      -144.102
R17  22410637.520   119923846.041 7      1069.061    22410637.760   119923846.039 7      1069.061    22410655.600    93274175.880 7       831.492    22410655.120    93274173.884 7       831.492
R02  23644371.880   126170905.621 7     -1128.183    23644371.500   126170905.609 6     -1128.183    23644382.440    98132973.557 6      -877.476    23644383.800    98132975.565 6      -877.476
G04  22474160.060   118102507.548 7      5626.498    22474158.500   118102507.555 5      5626.498    22474171.500    92027975.431 5      4384.284    22474171.620    92027983.439 8      4384.284
R16  23404979.940   125025193.338 6      -416.293    23404977.420   125025193.358 6      -416.293    23405001.600    97241900.891 7      -323.783    23405001.900    97241901.891 7      -323.783
G09  24271655.020   127548417.368 6      6255.501    24271654.080   127548417.372 6      6255.501    24271682.420    99388454.707 6      4874.417    24271682.500    99388494.722 7      4874.417
> 2025 04 04 17 44 55.0000000  0 14
G02  22823826.040   119940012.037 7      1512.948    22823824.080   119940012.039 5      1512.948    22823830.140    93459768.451 5      1178.921
G03  20051354.260   105370576.229 8      1883.132    20051353.800   105370576.234 8      1883.132    20051360.140    82106965.904 8      1467.376    20051361.040    82106970.900 8      1467.376
G14  22262695.000   116991236.685 6      2140.354    22262694.300   116991236.703 2      2140.354    22262702.260    91162022.396 2      1667.808    22262701.920    91162051.428 6      1667.808
R03  19899733.900   106524832.551 8      1700.535    19899734.100   106524832.576 7      1700.535    19899744.580    82852691.924 8      1322.638    19899744.140    82852690.925 8      1322.638
G01  21280737.660   111831027.937 7      2040.231    21280736.920   111831027.940 6      2040.231    21280742.020    87141079.151 6      1589.791    21280742.260    87141080.152 8      1589.791
R04  20112853.420   107703417.590 7      5653.379    20112853.860   107703417.627 7      5653.379    20112867.060    83769384.162 8      4397.073    20112866.700    83769384.162 8      4397.073
R18  20467654.300   109257721.794 7      3035.642    20467653.840   109257721.792 7      3035.642    20467664.520    84978272.998 8      2361.055    20467664.580    84978274.998 8      2361.055
G17  22493262.660   118202896.621 7      5370.152    22493261.480   118202896.621 6      5370.152    22493267.320    92106169.957 5      4184.534    22493267.560    92106171.958 7      4184.534
G08  22780586.640   119712785.507 7      -185.317    22780585.680   119712785.519 7      -185.317    22780600.460    93282740.116 7      -144.403    22780601.040    93282745.120 7      -144.403
R17  22410437.620   119922777.189 7      1068.741    22410437.880   119922777.198 7      1068.741    22410455.440    93273344.553 7       831.243    22410455.380    93273342.557 7       831.243
R02  23644583.480   126172034.026 7     -1128.447    23644583.200   126172034.016 6     -1128.447    23644593.860    98133851.224 6      -877.681    23644595.160    98133853.229 6      -877.681
G04  22473089.200   118096881.226 7      5626.299    22473088.000   118096881.233 5      5626.299    22473100.780    92023591.298 5      4384.129    22473100.960    92023599.306 8      4384.129
R16  23405058.340   125025609.650 6      -416.330    23405055.360   125025609.659 6      -416.330    23405080.080    97242224.679 7      -323.812    23405080.040    97242225.677 7      -323.812
G09  24270464.900   127542161.821 6      6255.603    24270463.780   127542161.823 6      6255.603    24270492.240    99383580.282 6      4874.496    24270492.040    99383620.293 7      4874.496
> 2025 04 04 17 44 56.0000000  0 14
G02  22823538.380   119938499.102 7      1513.026    22823536.320   119938499.109 5      1513.026    22823542.200    93458589.546 5      1178.981
G03  20050996.180   105368693.255 8      1882.864    20050995.400   105368693.263 8      1882.864    20051001.900    82105498.662 8      1467.167    20051002.640    82105503.660 8      1467.167
G14  22262287.500   116989096.451 6      2140.161    22262287.100   116989096.464 2      2140.161    22262294.840    91160354.685 2      1667.658    22262295.380    91160383.707 6      1667.658
R03  19899416.280   106523132.354 7      1699.945    19899416.560   106523132.380 7      1699.945    19899426.880    82851369.555 8      1322.179    19899426.760    82851368.554 8      1322.179
G01  21280349.440   111828987.659 7      2040.489    21280348.560   111828987.664 6      2040.489    21280353.720    87139489.328 6      1589.991    21280354.220    87139490.336 8      1589.991
R04  20111797.680   107697764.501 7      5652.899    20111798.340   107697764.532 7      5652.899    20111811.280    83764987.323 8      4396.700    20111811.280    83764987.325 8      4396.700
R18  20467085.360   109254686.213 7      3035.586    20467084.780   109254686.211 7      3035.586    20467095.800    84975911.999 8      2361.011    20467095.780    84975914.001 8      2361.011
G17  22492240.640   118197526.540 7      5370.165    22492239.660   118197526.540 6      5370.165    22492245.440    92101985.480 6      4184.544    22492245.580    92101987.479 7      4184.544
G08  22780621.960   119712970.760 7      -185.214    22780620.880   119712970.770 7      -185.214    22780635.560    93282884.463 7      -144.322    22780636.200    93282889.475 7      -144.322
R17  22410238.380   119921708.551 7      1068.679    22410238.160   119921708.563 7      1068.679    22410255.840    93272513.398 7       831.194    22410255.460    93272511.405 7       831.194
R02  23644794.540   126173162.692 7     -1128.591    23644793.920   126173162.676 6     -1128.591    23644806.000    98134729.060 6      -877.793    23644806.600    98134731.074 6      -877.793
G04  22472018.500   118091255.067 7      5626.189    22472017.340   118091255.069 5      5626.189    22472030.220    92019207.286 5      4384.044    22472030.060    92019215.300 8      4384.044
R16  23405135.880   125026025.954 6      -416.211    23405133.600   125026025.969 6      -416.211    23405157.800    97242548.453 7      -323.720    23405157.860    97242549.446 7      -323.720
G09  24269274.380   127535906.134 6      6255.788    24269273.380   127535906.145 6      6255.788    24269302.040    99378705.758 6      4874.640    24269302.160    99378745.783 7      4874.640
> 2025 04 04 17 44 57.0000000  0 14
G02  22823250.260   119936986.082 7      1513.061    22823248.380   119936986.082 5      1513.061    22823254.400    93457410.570 5      1179.009
G03  20050638.080   105366810.599 8      1882.577    20050637.120   105366810.604 8      1882.577    20050643.560    82104031.659 8      1466.943    20050644.480    82104036.659 8      1466.943
G14  22261880.320   116986956.614 6      2139.665    22261879.900   116986956.626 2      2139.665    22261887.640    91158687.279 2      1667.272    22261887.360    91158716.304 6      1667.272
R03  19899098.900   106521432.864 7      1699.153    19899099.360   106521432.893 7      1699.153    19899109.360    82850047.734 8      1321.563    19899109.160    82850046.735 8      1321.563
G01  21279961.320   111826947.355 7      2040.320    21279960.420   111826947.360 6      2040.320    21279965.360    87137899.487 6      1589.860    21279965.960    87137900.496 8      1589.860
R04  20110742.620   107692111.878 8      5652.417    20110742.580   107692111.906 7      5652.417    20110755.800    83760590.845 8      4396.324    20110755.640    83760590.851 8      4396.324
R18  20466516.880   109251650.697 7      3035.469    20466516.380   109251650.695 7      3035.469    20466526.960    84973551.046 8      2360.920    20466527.240    84973553.048 8      2360.920
G17  22491218.920   118192156.448 7      5370.117    22491217.760   118192156.443 6      5370.117    22491223.440    92097800.999 6      4184.506    22491223.760    92097803.000 7      4184.506
G08  22780657.240   119713156.158 7      -185.498    22780656.260   119713156.168 7      -185.498    22780670.860    93283028.924 7      -144.544    22780671.620    93283033.928 7      -144.544
R17  22410038.400   119920639.988 7      1068.598    22410038.560   119920640.000 7      1068.598    22410056.500    93271682.292 7       831.132    22410056.100    93271680.292 7       831.132
R02  23645006.020   126174291.454 7     -1128.855    23645006.140   126174291.449 6     -1128.855    23645017.400    98135606.982 6      -877.998    23645018.100    98135608.994 6      -877.998
G04  22470947.760   118085628.955 7      5625.983    22470946.620   118085628.962 5      5625.983    22470959.580    92014823.321 5      4383.883    22470959.480    92014831.335 8      4383.883
R16  23405214.060   125026442.152 6      -416.214    23405211.180   125026442.163 6      -416.214    23405235.840    97242872.137 7      -323.722    23405236.060    97242873.132 7      -323.722
G09  24268084.060   127529650.207 6      6256.160    24268082.900   127529650.209 6      6256.160    24268111.680    99373831.033 6      4874.930    24268111.320    99373871.052 7      4874.930
> 2025 04 04 17 44 58.0000000  0 14
G02  22822962.440   119935473.071 7      1512.867    22822960.640   119935473.065 5      1512.867    22822966.320    93456231.600 5      1178.857
G03  20050279.880   105364928.406 8      1881.959    20050278.920   105364928.408 8      1881.959    20050285.440    82102565.021 8      1466.461    20050286.180    82102570.019 8      1466.461
G14  22261473.680   116984817.283 6      2138.895    22261472.820   116984817.299 2      2138.895    22261480.420    91157020.273 2      1666.672    22261480.640    91157049.306 6      1666.672
R03  19898781.600   106519734.220 7      1698.127    19898782.180   106519734.246 7      1698.127    19898792.040    82848726.566 8      1320.765    19898792.220    82848725.565 8      1320.765
G01  21279573.060   111824907.116 7      2040.020    21279572.120   111824907.124 6      2040.020    21279577.000    87136309.696 6      1589.626    21279577.740    87136310.698 8      1589.626
R04  20109687.080   107686459.876 8      5651.568    20109687.120   107686459.912 7      5651.568    20109700.340    83756194.858 8      4395.664    20109700.220    83756194.864 8      4395.664
R18  20465948.240   109248615.370 7      3035.134    20465947.580   109248615.371 7      3035.134    20465958.340    84971190.243 8      2360.659    20465958.340    84971192.245 8      2360.659
G17  22490197.040   118186786.504 7      5369.865    22490195.740   118186786.501 6      5369.865    22490201.580    92093616.633 6      4184.310    22490202.100    92093618.634 7      4184.310
G08  22780692.900   119713341.765 7      -185.834    22780691.700   119713341.776 7      -185.834    22780706.220    93283173.548 7      -144.806    22780706.940    93283178.554 7      -144.806
R17  22409838.720   119919571.631 7      1068.119    22409839.040   119919571.654 7      1068.119    22409856.660    93270851.352 7       830.759    22409856.340    93270849.354 7       830.759
R02  23645217.560   126175420.426 7     -1129.183    23645217.540   126175420.422 6     -1129.183    23645229.760    98136485.082 6      -878.253    23645229.640    98136487.096 6      -878.253
G04  22469877.280   118080002.995 7      5625.800    22469875.980   118080003.000 5      5625.800    22469889.000    92010439.473 5      4383.740    22469889.140    92010447.485 8      4383.740
R16  23405291.500   125026858.373 6      -416.368    23405289.160   125026858.382 6      -416.368    23405314.120    97243195.844 7      -323.842    23405314.140    97243196.833 7      -323.842
G09  24266893.580   127523394.210 6      6255.999    24266892.420   127523394.202 6      6255.999    24266921.040    99368956.256 6      4874.805    24266921.100    99368996.265 7      4874.805
> 2025 04 04 17 44 59.0000000  0 14
G02  22822674.720   119933960.167 7      1512.801    22822672.640   119933960.170 5      1512.801    22822678.400    93455052.719 5      1178.806
G03  20049921.940   105363046.756 8      1881.322    20049920.920   105363046.761 8      1881.322    20049927.380    82101098.805 8      1465.965    20049927.920    82101103.805 8      1465.965
G14  22261067.080   116982678.565 6      2138.322    22261065.760   116982678.578 2      2138.322    22261073.260    91155353.744 2      1666.225    22261074.200    91155382.768 6      1666.225
R03  19898464.120   106518036.481 8      1697.191    19898465.120   106518036.506 7      1697.191    19898475.040    82847406.109 8      1320.037    19898474.760    82847405.110 8      1320.037
G01  21279184.840   111822867.009 7      2039.970    21279184.100   111822867.019 6      2039.970    21279188.760    87134720.007 6      1589.587    21279189.660    87134721.012 8      1589.587
R04  20108631.740   107680808.584 7      5650.963    20108632.000   107680808.615 7      5650.963    20108645.000    83751799.420 8      4395.194    20108644.960    83751799.425 8      4395.194
R18  20465379.380   109245580.307 7      3034.868    20465379.140   109245580.306 7      3034.868    20465389.700    84968829.639 8      2360.453    20465389.840    84968831.641 8      2360.453
G17  22489175.140   118181416.785 7      5369.628    22489174.000   118181416.782 6      5369.628    22489179.820    92089432.445 6      4184.126    22489180.320    92089434.449 7      4184.126
G08  22780728.220   119713527.704 7      -186.163    22780727.080   119713527.714 7      -186.163    22780741.700    93283318.431 7      -145.062    22780742.520    93283323.443 7      -145.062
R17  22409639.360   119918503.612 7      1067.755    22409639.400   119918503.629 7      1067.755    22409657.360    93270020.661 7       830.476    22409656.980    93270018.664 7       830.476
R02  23645429.180   126176549.754 7     -1129.449    23645429.480   126176549.739 6     -1129.449    23645441.160    98137363.440 6      -878.460    23645441.540    98137365.439 6      -878.460
G04  22468806.740   118074377.335 7      5625.501    22468805.500   118074377.340 5      5625.501    22468818.320    92006055.856 5      4383.508    22468818.820    92006063.864 8      4383.508
R16  23405369.660   125027274.714 6      -416.561    23405365.900   125027274.726 6      -416.561    23405391.960    97243519.650 7      -323.992    23405391.940    97243520.640 7      -323.992
G09  24265703.080   127517138.159 6      6256.049    24265702.280   127517138.156 6      6256.049    24265730.260    99364081.439 6      4874.843    24265730.180    99364121.464 7      4874.843
> 2025 04 04 17 45  0.0000000  0 14
G02  22822386.700   119932447.106 7      1513.033    22822384.720   119932447.108 5      1513.033    22822390.600    93453873.714 5      1178.987
G03  20049563.840   105361165.343 8      1881.163    20049562.880   105361165.348 8      1881.163    20049569.340    82099632.777 8      1465.842    20049570.100    82099637.773 8      1465.842
G14  22260660.020   116980540.144 6      2138.075    22260658.860   116980540.157 2      2138.075    22260666.280    91153687.443 2      1666.033    22260668.020    91153716.472 6      1666.033
R03  19898147.040   106516339.343 8      1696.770    19898148.100   106516339.374 7      1696.770    19898157.900    82846086.119 8      1319.710    19898157.800    82846085.120 8      1319.710
G01  21278796.580   111820826.802 7      2040.129    21278795.880   111820826.812 6      2040.129    21278800.560    87133130.241 6      1589.711    21278801.240    87133131.240 8      1589.711
R04  20107576.200   107675157.770 7      5650.465    20107576.740   107675157.804 7      5650.465    20107589.760    83747404.354 8      4394.806    20107589.560    83747404.362 8      4394.806
R18  20464811.020   109242545.229 7      3034.899    20464810.580   109242545.230 7      3034.899    20464821.140    84966469.026 8      2360.477    20464821.240    84966471.024 8      2360.477
G17  22488153.500   118176047.024 7      5369.659    22488152.120   118176047.024 6      5369.659    22488157.840    92085248.222 6      4184.150    22488158.500    92085250.224 7      4184.150
G08  22780763.640   119713713.672 7      -186.084    22780762.640   119713713.688 7      -186.084    22780776.940    93283463.343 7      -145.000    22780777.700    93283468.357 7      -145.000
R17  22409439.920   119917435.638 7      1067.706    22409439.800   119917435.658 7      1067.706    22409457.920    93269190.015 7       830.438    22409457.400    93269188.015 7       830.438
R02  23645640.980   126177679.148 7     -1129.622    23645640.680   126177679.138 6     -1129.622    23645652.220    98138241.870 6      -878.595    23645653.020    98138243.878 6      -878.595
G04  22467736.120   118068751.644 7      5625.595    22467734.920   118068751.649 5      5625.595    22467747.900    92001672.213 5      4383.581    22467747.980    92001680.229 8      4383.581
R16  23405447.820   125027690.949 6      -416.336    23405443.740   125027690.948 6      -416.336    23405469.540    97243843.345 7      -323.817    23405469.800    97243844.332 7      -323.817
G09  24264512.580   127510881.821 7      6256.441    24264511.760   127510881.810 6      6256.441    24264539.840    99359206.395 6      4875.149    24264539.820    99359246.406 7      4875.149
> 2025 04 04 17 45  1.0000000  0 14
G02  22822098.640   119930934.081 7      1513.075    22822096.720   119930934.086 5      1513.075    22822102.740    93452694.734 5      1179.020
G03  20049205.960   105359284.406 8      1880.774    20049205.120   105359284.411 8      1880.774    20049211.320    82098167.111 8      1465.538    20049212.040    82098172.111 8      1465.538
G14  22260253.580   116978402.265 6      2137.670    22260252.160   116978402.275 2      2137.670    22260259.620    91152021.565 2      1665.717    22260261.460    91152050.590 6      1665.717
R03  19897830.440   106514643.073 8      1695.919    19897831.040   106514643.104 7      1695.919    19897841.020    82844766.802 8      1319.048    19897841.100    82844765.803 8      1319.048
G01  21278408.300   111818786.687 7      2040.076    21278407.600   111818786.689 6      2040.076    21278412.460    87131540.537 6      1589.670    21278413.020    87131541.536 8      1589.670
R04  20106521.120   107669507.616 7      5649.889    20106521.300   107669507.650 7      5649.889    20106534.500    83743009.802 8      4394.358    20106534.460    83743009.810 8      4394.358
R18  20464242.200   109239510.356 7      3034.800    20464242.240   109239510.357 7      3034.800    20464252.560    84964108.569 8      2360.400    20464252.620    84964110.569 8      2360.400
G17  22487131.660   118170677.410 7      5369.638    22487130.480   118170677.407 6      5369.638    22487136.180    92081064.115 5      4184.133    22487136.480    92081066.114 7      4184.133
G08  22780799.020   119713899.929 7      -186.271    22780797.820   119713899.934 7      -186.271    22780812.580    93283608.470 7      -145.146    22780813.180    93283613.478 7      -145.146
R17  22409240.780   119916367.899 7      1067.697    22409240.260   119916367.925 7      1067.697    22409258.260    93268359.549 7       830.431    22409257.680    93268357.548 7       830.431
R02  23645852.760   126178808.868 7     -1129.946    23645852.260   126178808.847 6     -1129.946    23645864.420    98139120.549 6      -878.847    23645864.700    98139122.553 6      -878.847
G04  22466665.780   118063126.157 7      5625.420    22466664.560   118063126.159 5      5625.420    22466677.300    91997288.733 5      4383.444    22466677.560    91997296.743 8      4383.444
R16  23405525.460   125028107.202 6      -416.363    23405521.600   125028107.201 6      -416.363    23405547.340    97244167.078 7      -323.838    23405548.120    97244168.070 7      -323.838
G09  24263321.800   127504625.431 6      6256.453    24263321.300   127504625.428 6      6256.453    24263349.620    99354331.311 6      4875.159    24263349.020    99354371.323 7      4875.159
> 2025 04 04 17 45  2.0000000  0 14
G02  22821810.940   119929421.109 7      1512.809    22821808.840   119929421.112 5      1512.809    22821814.960    93451515.792 5      1178.813
G03  20048848.060   105357403.928 8      1880.087    20048847.220   105357403.936 8      1880.087    20048853.420    82096701.818 8      1465.003    20048854.300    82096706.818 8      1465.003
G14  22259846.800   116976264.926 6      2136.930    22259845.560   116976264.939 2      2136.930    22259852.840    91150356.111 2      1665.140    22259854.260    91150385.123 6      1665.140
R03  19897513.680   106512947.609 8      1694.923    19897514.580   106512947.640 7      1694.923    19897524.240    82843448.114 8      1318.274    19897524.460    82843447.111 8      1318.274
G01  21278020.260   111816746.637 7      2039.913    21278019.340   111816746.640 6      2039.913    21278024.260    87129950.888 6      1589.543    21278024.780    87129951.887 8      1589.543
R04  20105466.400   107663858.120 7      5648.987    20105466.640   107663858.157 7      5648.987    20105479.540    83738615.760 8      4393.656    20105479.520    83738615.768 8      4393.656
R18  20463673.560   109236475.651 7      3034.492    20463673.740   109236475.657 7      3034.492    20463684.120    84961748.254 8      2360.161    20463684.120    84961750.256 8      2360.161
G17  22486109.900   118165307.954 7      5369.278    22486108.680   118165307.954 6      5369.278    22486114.400    92076880.130 6      4183.853    22486114.580    92076882.137 7      4183.853
G08  22780834.340   119714086.430 7      -186.748    22780833.360   119714086.438 7      -186.748    22780848.000    93283753.785 7      -145.518    22780848.900    93283758.792 7      -145.518
R17  22409040.780   119915300.441 7      1067.184    22409040.560   119915300.464 7      1067.184    22409058.400    93267529.300 7       830.032    22409058.060    93267527.299 7       830.032
R02  23646063.960   126179938.812 7     -1130.183    23646063.380   126179938.799 6     -1130.183    23646075.700    98139999.409 6      -879.031    23646076.220    98140001.411 6      -879.031
G04  22465595.100   118057500.857 7      5625.098    22465594.260   118057500.857 5      5625.098    22465606.960    91992905.397 5      4383.194    22465607.080    91992913.411 8      4383.194
R16  23405603.740   125028523.469 6      -416.375    23405599.260   125028523.476 6      -416.375    23405625.400    97244490.833 7      -323.847    23405625.660    97244491.825 7      -323.847
G09  24262131.360   127498368.899 6      6256.480    24262130.440   127498368.901 6      6256.480    24262159.340    99349456.121 6      4875.179    24262158.920    99349496.151 7      4875.179
> 2025 04 04 17 45  3.0000000  0 14
G02  22821522.880   119927908.264 7      1512.779    22821521.020   119927908.268 5      1512.779    22821527.100    93450336.951 5      1178.789
G03  20048490.220   105355524.010 8      1879.770    20048489.420   105355524.012 8      1879.770    20048495.700    82095236.947 8      1464.756    20048496.400    82095241.945 8      1464.756
G14  22259440.220   116974128.213 6      2136.312    22259439.020   116974128.223 2      2136.312    22259446.440    91148691.139 2      1664.659    22259447.620    91148720.153 6      1664.659
R03  19897196.740   106511253.084 8      1694.112    19897198.140   106511253.112 7      1694.112    19897207.740    82842130.148 8      1317.642    19897207.540    82842129.147 8      1317.642
G01  21277632.020   111814706.782 7      2039.854    21277631.080   111814706.785 6      2039.854    21277636.120    87128361.395 6      1589.496    21277636.640    87128362.396 8      1589.496
R04  20104411.320   107658209.323 7      5648.463    20104411.800   107658209.354 7      5648.463    20104424.600    83734222.259 8      4393.249    20104424.460    83734222.266 8      4393.249
R18  20463105.160   109233441.242 7      3034.310    20463105.420   109233441.246 7      3034.310    20463115.580    84959388.164 8      2360.019    20463115.560    84959390.164 8      2360.019
G17  22485088.520   118159938.759 7      5369.122    22485087.040   118159938.758 6      5369.122    22485092.580    92072696.347 6      4183.731    22485093.120    92072698.350 7      4183.731
G08  22780870.020   119714273.273 7      -187.017    22780868.900   119714273.286 7      -187.017    22780883.380    93283899.371 7      -145.727    22780884.560    93283904.385 7      -145.727
R17  22408840.960   119914233.256 7      1067.140    22408841.200   119914233.279 7      1067.140    22408858.760    93266699.270 7       829.998    22408858.840    93266697.268 7       829.998
R02  23646275.740   126181069.164 6     -1130.515    23646275.240   126181069.143 6     -1130.515    23646288.160    98140878.566 6      -879.289    23646288.060    98140880.565 6      -879.289
G04  22464524.800   118051875.857 7      5624.916    22464524.020   118051875.859 5      5624.916    22464536.560    91988522.296 5      4383.051    22464536.660    91988530.310 8      4383.051
R16  23405682.160   125028939.917 6      -416.385    23405677.300   125028939.919 6      -416.385    23405703.240    97244814.710 7      -323.855    23405703.900    97244815.706 6      -323.855
G09  24260940.780   127492112.393 6      6256.637    24260939.820   127492112.400 6      6256.637    24260968.620    99344580.965 6      4875.301    24260968.280    99344620.986 7      4875.301
> 2025 04 04 17 45  4.0000000  0 14
G02  22821234.980   119926395.331 7      1512.884    22821233.100   119926395.336 5      1512.884    22821239.240    93449158.047 5      1178.870
G03  20048132.580   105353644.447 8      1879.324    20048131.740   105353644.454 8      1879.324    20048138.100    82093772.352 8      1464.409    20048138.740    82093777.354 8      1464.409
G14  22259033.600   116971991.883 6      2136.021    22259032.480   116971991.896 2      2136.021    22259040.040    91147026.473 2      1664.432    22259040.440    91147055.475 6      1664.432
R03  19896880.580   106509559.263 8      1693.337    19896881.480   106509559.289 7      1693.337    19896891.240    82840812.736 8      1317.040    19896891.260    82840811.733 8      1317.040
G01  21277243.880   111812666.899 7      2039.700    21277242.800   111812666.906 6      2039.700    21277247.920    87126771.885 6      1589.376    21277248.720    87126772.882 8      1589.376
R04  20103356.700   107652561.037 7      5647.893    20103356.940   107652561.071 7      5647.893    20103369.800    83729829.157 8      4392.805    20103369.880    83729829.165 8      4392.805
R18  20462536.880   109230406.921 7      3034.281    20462537.020   109230406.922 7      3034.281    20462547.060    84957028.135 8      2359.996    20462547.320    84957030.137 8      2359.996
G17  22484066.520   118154569.607 7      5369.002    22484065.280   118154569.604 6      5369.002    22484070.860    92068512.593 6      4183.638    22484071.400    92068514.596 7      4183.638
G08  22780905.600   119714460.263 7      -187.267    22780904.560   119714460.270 7      -187.267    22780919.120    93284045.069 7      -145.922    22780919.940    93284050.076 7      -145.922
R17  22408641.760   119913166.232 7      1066.859    22408641.920   119913166.244 7      1066.859    22408659.720    93265869.345 7       829.779    22408659.120    93265867.344 7       829.779
R02  23646487.460   126182199.596 6     -1130.569    23646488.020   126182199.586 6     -1130.569    23646499.820    98141757.751 6      -879.332    23646500.240    98141759.749 6      -879.332
G04  22463454.320   118046250.943 7      5624.662    22463453.800   118046250.948 5      5624.662    22463466.220    91984139.263 5      4382.854    22463466.280    91984147.276 8      4382.854
R16  23405759.660   125029356.331 6      -416.432    23405755.080   125029356.303 6      -416.432    23405781.200    97245138.546 7      -323.892    23405781.380    97245139.542 6      -323.892
G09  24259750.180   127485855.708 6      6256.656    24259749.120   127485855.721 6      6256.656    24259777.900    99339705.657 6      4875.316    24259777.580    99339745.682 7      4875.316
> 2025 04 04 17 45  5.0000000  0 14
G02  22820946.980   119924882.653 7      1512.628    22820945.360   119924882.655 5      1512.628    22820951.420    93447979.339 5      1178.671
G03  20047774.940   105351765.530 8      1878.749    20047774.140   105351765.535 8      1878.749    20047780.500    82092308.263 8      1463.961    20047781.260    82092313.261 8      1463.961
G14  22258626.820   116969856.271 6      2135.419    22258626.100   116969856.284 2      2135.419    22258633.540    91145362.362 2      1663.963    22258633.980    91145391.378 6      1663.963
R03  19896564.360   106507866.467 8      1692.447    19896565.080   106507866.493 7      1692.447    19896575.040    82839496.121 8      1316.347    19896574.960    82839495.122 8      1316.347
G01  21276855.860   111810627.272 7      2039.629    21276854.820   111810627.274 6      2039.629    21276859.900    87125182.564 6      1589.321    21276860.760    87125183.561 8      1589.321
R04  20102301.980   107646913.603 7      5647.177    20102302.400   107646913.629 7      5647.177    20102315.100    83725436.716 8      4392.249    20102314.920    83725436.721 8      4392.249
R18  20461968.300   109227373.001 7      3033.933    20461968.720   109227372.997 7      3033.933    20461978.700    84954668.421 8      2359.726    20461978.700    84954670.421 8      2359.726
G17  22483044.940   118149200.771 7      5368.815    22483043.640   118149200.771 6      5368.815    22483049.260    92064329.093 5      4183.492    22483049.540    92064331.101 7      4183.492
G08  22780941.320   119714647.652 7      -187.490    22780940.200   119714647.665 7      -187.490    22780954.660    93284191.089 7      -146.096    22780955.720    93284196.101 7      -146.096
R17  22408442.480   119912099.636 7      1066.505    22408442.180   119912099.656 7      1066.505    22408459.980    93265039.766 7       829.504    22408459.820    93265037.760 7       829.504
R02  23646699.720   126183330.485 6     -1130.918    23646699.800   126183330.475 6     -1130.918    23646711.780    98142637.331 6      -879.603    23646712.460    98142639.324 6      -879.603
G04  22462383.800   118040626.392 7      5624.436    22462383.580   118040626.399 5      5624.436    22462395.940    91979756.512 5      4382.677    22462395.980    91979764.526 8      4382.677
R16  23405837.420   125029772.932 6      -416.562    23405832.920   125029772.919 6      -416.562    23405859.280    97245462.565 7      -323.992    23405859.560    97245463.560 6      -323.992
G09  24258559.240   127479599.086 6      6256.689    24258558.280   127479599.091 6      6256.689    24258587.100    99334830.390 6      4875.342    24258586.760    99334870.419 7      4875.342
> 2025 04 04 17 45  6.0000000  0 14
G02  22820659.340   119923369.936 7      1512.764    22820657.600   119923369.941 5      1512.764    22820663.440    93446800.603 5      1178.777
G03  20047417.480   105349887.034 8      1878.284    20047416.720   105349887.044 8      1878.284    20047423.060    82090844.512 8      1463.598    20047423.860    82090849.510 8      1463.598
G14  22258220.800   116967721.174 6      2134.815    22258220.140   116967721.186 2      2134.815    22258227.100    91143698.652 2      1663.492    22258228.480    91143727.662 6      1663.492
R03  19896248.060   106506174.485 8      1691.636    19896249.100   106506174.508 7      1691.636    19896258.880    82838180.141 8      1315.717    19896258.740    82838179.142 8      1315.717
G01  21276467.960   111808587.717 7      2039.500    21276466.660   111808587.719 6      2039.500    21276471.640    87123593.300 6      1589.221    21276472.480    87123594.297 8      1589.221
R04  20101247.700   107641266.804 7      5646.478    20101247.960   107641266.835 7      5646.478    20101260.580    83721044.771 8      4391.705    20101260.840    83721044.778 8      4391.705
R18  20461400.220   109224339.225 7      3033.715    20461400.520   109224339.221 7      3033.715    20461410.380    84952308.818 8      2359.556    20461410.580    84952310.820 8      2359.556
G17  22482023.240   118143832.070 7      5368.681    22482021.980   118143832.072 6      5368.681    22482027.760    92060145.701 5      4183.387    22482028.160    92060147.705 7      4183.387
G08  22780977.160   119714835.294 7      -187.773    22780976.040   119714835.301 7      -187.773    22780990.400    93284337.295 7      -146.317    22780991.320    93284342.301 7      -146.317
R17  22408243.440   119911033.278 7      1066.224    22408243.580   119911033.290 7      1066.224    22408260.620    93264210.372 7       829.285    22408260.200    93264208.367 7       829.285
R02  23646912.020   126184461.600 7     -1131.161    23646911.880   126184461.603 6     -1131.161    23646924.020    98143517.117 6      -879.792    23646924.440    98143519.118 6      -879.792
G04  22461313.780   118035001.998 7      5624.338    22461313.300   118035002.008 5      5624.338    22461325.600    91975373.882 5      4382.601    22461325.580    91975381.896 8      4382.601
R16  23405915.160   125030189.642 6      -416.733    23405910.220   125030189.603 6      -416.733    23405937.660    97245786.608 7      -324.126    23405937.420    97245787.600 6      -324.126
G09  24257368.780   127473342.354 6      6256.724    24257367.520   127473342.357 6      6256.724    24257396.280    99329955.043 6      4875.369    24257396.040    99329995.064 7      4875.369
> 2025 04 04 17 45  7.0000000  0 14
G02  22820371.520   119921857.185 7      1512.751    22820369.700   119921857.192 5      1512.751    22820375.560    93445621.837 5      1178.767
G03  20047060.220   105348008.894 8      1877.969    20047059.320   105348008.897 8      1877.969    20047065.580    82089381.021 8      1463.352    20047066.300    82089386.021 8      1463.352
G14  22257814.520   116965586.452 6      2134.604    22257813.780   116965586.465 2      2134.604    22257820.800    91142035.232 2      1663.328    22257822.460    91142064.224 6      1663.328
R03  19895932.240   106504483.220 7      1690.883    19895932.960   106504483.243 7      1690.883    19895943.020    82836864.719 8      1315.131    19895942.980    82836863.720 8      1315.131
G01  21276079.540   111806548.096 7      2039.670    21276078.540   111806548.100 6      2039.670    21276083.600    87122003.984 6      1589.353    21276084.280    87122004.986 8      1589.353
R04  20100193.340   107635620.553 7      5645.947    20100193.500   107635620.579 7      5645.947    20100206.120    83716653.247 8      4391.292    20100206.180    83716653.254 8      4391.292
R18  20460832.140   109221305.524 7      3033.563    20460832.360   109221305.517 7      3033.563    20460841.960    84949949.274 8      2359.438    20460842.380    84949951.276 8      2359.438
G17  22481001.780   118138463.420 7      5368.601    22481000.440   118138463.423 6      5368.601    22481006.000    92055962.342 6      4183.325    22481006.440    92055964.342 7      4183.325
G08  22781012.940   119715023.056 7      -187.894    22781011.660   119715023.066 7      -187.894    22781026.080    93284483.595 7      -146.411    22781027.020    93284488.608 7      -146.411
R17  22408044.380   119909967.035 7      1066.125    22408044.360   119909967.049 7      1066.125    22408061.380    93263381.064 7       829.208    22408060.740    93263379.064 7       829.208
R02  23647123.900   126185592.960 7     -1131.553    23647123.440   126185592.956 6     -1131.553    23647135.800    98144397.068 6      -880.097    23647136.880    98144399.061 6      -880.097
G04  22460243.560   118029377.707 7      5624.214    22460242.960   118029377.712 5      5624.214    22460255.280    91970991.328 5      4382.504    22460255.420    91970999.339 8      4382.504
R16  23405993.260   125030606.258 6      -416.709    23405987.660   125030606.235 6      -416.709    23406015.220    97246110.631 7      -324.107    23406015.460    97246111.627 7      -324.107
G09  24256177.980   127467085.415 6      6257.043    24256176.800   127467085.417 6      6257.043    24256205.680    99325079.518 6      4875.618    24256205.320    99325119.541 7      4875.618
> 2025 04 04 17 45  8.0000000  0 14
G02  22820083.460   119920344.494 7      1512.702    22820081.800   119920344.499 5      1512.702    22820087.700    93444443.115 5      1178.729
G03  20046702.860   105346131.239 8      1877.544    20046702.040   105346131.241 8      1877.544    20046708.360    82087917.919 8      1463.021    20046708.940    82087922.915 8      1463.021
G14  22257408.180   116963452.314 6      2134.149    22257407.620   116963452.324 2      2134.149    22257414.720    91140372.269 2      1662.973    22257415.920    91140401.255 6      1662.973
R03  19895616.520   106502792.817 7      1690.066    19895617.500   106502792.837 7      1690.066    19895627.400    82835549.957 8      1314.496    19895627.120    82835548.958 8      1314.496
G01  21275691.680   111804508.616 7      2039.532    21275690.460   111804508.621 6      2039.532    21275695.620    87120414.790 6      1589.246    21275696.080    87120415.789 8      1589.246
R04  20099139.220   107629974.926 7      5645.507    20099139.400   107629974.954 7      5645.507    20099151.960    83712262.215 8      4390.950    20099151.900    83712262.221 8      4390.950
R18  20460263.600   109218272.017 7      3033.482    20460263.940   109218272.010 8      3033.482    20460273.660    84947589.884 8      2359.375    20460273.820    84947591.886 8      2359.375
G17  22479980.360   118133094.936 7      5368.520    22479978.840   118133094.936 6      5368.520    22479984.340    92051779.114 6      4183.263    22479984.740    92051781.116 7      4183.263
G08  22781048.480   119715211.102 7      -188.161    22781047.520   119715211.118 7      -188.161    22781061.900    93284630.123 7      -146.619    22781062.740    93284635.131 7      -146.619
R17  22407844.900   119908901.014 7      1066.026    22407845.100   119908901.037 7      1066.026    22407862.200    93262551.936 7       829.131    22407861.740    93262549.935 7       829.131
R02  23647336.000   126186724.599 7     -1131.754    23647335.380   126186724.597 6     -1131.754    23647347.920    98145277.231 6      -880.253    23647348.780    98145279.234 6      -880.253
G04  22459173.440   118023753.618 7      5624.117    22459172.700   118023753.623 5      5624.117    22459184.960    91966608.935 5      4382.429    22459185.180    91966616.947 8      4382.429
R16  23406071.300   125031022.926 6      -416.505    23406066.400   125031022.900 6      -416.505    23406093.300    97246434.680 7      -323.949    23406093.440    97246435.674 7      -323.949
G09  24254987.440   127460828.394 6      6257.259    24254986.240   127460828.396 6      6257.259    24255015.000    99320203.942 6      4875.786    24255014.220    99320243.961 7      4875.786
> 2025 04 04 17 45  9.0000000  0 14
G02  22819795.500   119918831.561 7      1513.046    22819793.880   119918831.564 5      1513.046    22819799.780    93443264.209 5      1178.997
G03  20046345.540   105344253.772 8      1877.413    20046344.740   105344253.782 8      1877.413    20046351.040    82086454.966 8      1462.919    20046351.720    82086459.966 8      1462.919
G14  22257002.820   116961318.404 6      2133.969    22257001.660   116961318.417 2      2133.969    22257008.800    91138709.487 2      1662.833    22257010.000    91138738.499 6      1662.833
R03  19895300.800   106501102.962 8      1689.626    19895301.520   106501102.988 7      1689.626    19895311.720    82834235.634 8      1314.153    19895311.560    82834234.635 8      1314.153
G01  21275303.500   111802468.945 7      2039.851    21275302.280   111802468.950 6      2039.851    21275307.480    87118825.440 6      1589.494    21275307.920    87118826.441 8      1589.494
R04  20098084.860   107624329.679 7      5645.136    20098085.080   107624329.710 7      5645.136    20098097.660    83707871.482 8      4390.662    20098097.680    83707871.488 8      4390.662
R18  20459695.660   109215238.449 7      3033.606    20459695.820   109215238.445 7      3033.606    20459705.500    84945230.445 8      2359.472    20459705.660    84945232.447 8      2359.472
G17  22478958.680   118127726.350 7      5368.701    22478957.340   118127726.350 6      5368.701    22478962.740    92047595.806 6      4183.403    22478963.060    92047597.809 7      4183.403
G08  22781084.260   119715399.122 7      -187.949    22781083.320   119715399.132 7      -187.949    22781097.760    93284776.622 7      -146.454    22781098.360    93284781.628 7      -146.454
R17  22407646.000   119907835.030 7      1065.909    22407645.840   119907835.058 7      1065.909    22407663.060    93261722.840 7       829.041    22407662.500    93261720.839 7       829.041
R02  23647547.900   126187856.253 7     -1131.463    23647547.220   126187856.243 6     -1131.463    23647559.940    98146157.419 6      -880.027    23647560.860    98146159.424 6      -880.027
G04  22458103.100   118018129.475 7      5624.253    22458102.440   118018129.479 5      5624.253    22458114.720    91962226.500 5      4382.535    22458114.880    91962234.511 8      4382.535
R16  23406150.300   125031439.438 6      -416.378    23406143.360   125031439.418 6      -416.378    23406171.320    97246758.614 7      -323.850    23406171.480    97246759.605 7      -323.850
G09  24253796.700   127454571.055 6      6257.461    24253795.440   127454571.063 6      6257.461    24253824.060    99315328.122 6      4875.943    24253823.520    99315368.143 7      4875.943
> 2025 04 04 17 45 10.0000000  0 14
G02  22819507.820   119917318.663 7      1512.874    22819506.020   119917318.665 5      1512.874    22819512.000    93442085.329 5      1178.862
G03  20045988.420   105342376.758 8      1876.858    20045987.600   105342376.762 8      1876.858    20045993.860    82084992.359 8      1462.486    20045994.560    82084997.359 8      1462.486
G14  22256596.460   116959185.062 6      2133.116    22256595.620   116959185.075 2      2133.116    22256602.900    91137047.144 2      1662.168    22256604.180    91137076.144 6      1662.168
R03  19894985.240   106499413.919 7      1688.711    19894986.040   106499413.936 7      1688.711    19894996.260    82832921.933 8      1313.442    19894995.920    82832920.932 8      1313.442
G01  21274915.420   111800429.369 7      2039.494    21274914.160   111800429.374 6      2039.494    21274919.340    87117236.164 6      1589.216    21274919.840    87117237.167 8      1589.216
R04  20097030.820   107618685.062 7      5644.332    20097031.340   107618685.093 7      5644.332    20097043.620    83703481.234 8      4390.036    20097043.600    83703481.245 8      4390.036
R18  20459127.440   109212205.081 7      3033.206    20459127.800   109212205.080 7      3033.206    20459137.120    84942871.167 8      2359.160    20459137.300    84942873.171 8      2359.160
G17  22477937.100   118122357.906 7      5368.394    22477935.740   118122357.908 5      5368.394    22477941.060    92043412.611 6      4183.164    22477941.480    92043414.615 7      4183.164
G08  22781120.300   119715587.402 7      -188.505    22781119.260   119715587.415 7      -188.505    22781133.520    93284923.333 7      -146.887    22781134.420    93284928.350 7      -146.887
R17  22407446.820   119906769.258 7      1065.678    22407446.920   119906769.284 7      1065.678    22407463.580    93260893.906 7       828.861    22407463.360    93260891.903 7       828.861
R02  23647759.880   126188988.147 7     -1132.167    23647759.380   126188988.127 6     -1132.167    23647771.620    98147037.785 6      -880.575    23647772.700    98147039.789 6      -880.575
G04  22457032.860   118012505.515 7      5623.884    22457032.320   118012505.517 5      5623.884    22457044.560    91957844.208 5      4382.247    22457044.660    91957852.223 8      4382.247
R16  23406228.220   125031855.932 6      -416.457    23406221.820   125031855.906 6      -416.457    23406249.000    97247082.530 7      -323.911    23406249.580    97247083.524 7      -323.911
G09  24252606.240   127448313.579 6      6257.571    24252604.340   127448313.582 6      6257.571    24252633.260    99310452.194 6      4876.029    24252633.000    99310492.219 7      4876.029
> 2025 04 04 17 45 11.0000000  0 14
G02  22819219.800   119915805.796 7      1512.890    22819218.120   119915805.801 5      1512.890    22819223.900    93440906.474 5      1178.875
G03  20045631.360   105340500.208 8      1876.302    20045630.460   105340500.213 8      1876.302    20045636.780    82083530.121 8      1462.053    20045637.320    82083535.117 8      1462.053
G14  22256190.020   116957052.209 6      2132.534    22256189.600   116957052.224 2      2132.534    22256196.920    91135385.183 2      1661.714    22256197.820    91135414.187 6      1661.714
R03  19894670.300   106497725.689 7      1687.770    19894670.560   106497725.704 7      1687.770    19894681.020    82831608.868 8      1312.710    19894680.840    82831607.867 8      1312.710
G01  21274527.140   111798389.842 7      2039.496    21274526.060   111798389.844 6      2039.496    21274531.280    87115646.920 6      1589.217    21274531.640    87115647.926 8      1589.217
R04  20095976.700   107613041.100 7      5643.681    20095977.260   107613041.126 7      5643.681    20095989.800    83699091.492 8      4389.530    20095989.700    83699091.499 8      4389.530
R18  20458559.260   109209171.903 7      3032.992    20458559.500   109209171.896 7      3032.992    20458569.060    84940512.030 8      2358.993    20458569.120    84940514.030 8      2358.993
G17  22476915.340   118116989.622 7      5368.152    22476914.200   118116989.621 6      5368.152    22476919.640    92039229.538 6      4182.975    22476920.120    92039231.541 7      4182.975
G08  22781156.300   119715775.900 7      -188.684    22781155.200   119715775.913 7      -188.684    22781169.500    93285070.207 7      -147.027    22781170.280    93285075.219 7      -147.027
R17  22407247.560   119905703.745 7      1065.404    22407247.960   119905703.771 7      1065.404    22407264.440    93260065.168 7       828.648    22407264.560    93260063.164 7       828.648
R02  23647971.920   126190120.204 6     -1132.132    23647971.620   126190120.194 6     -1132.132    23647984.160    98147918.311 6      -880.547    23647984.940    98147920.315 6      -880.547
G04  22455962.580   118006881.728 7      5623.744    22455962.200   118006881.728 5      5623.744    22455974.320    91953462.051 5      4382.138    22455974.320    91953470.066 8      4382.138
R16  23406305.860   125032272.463 6      -416.678    23406300.040   125032272.461 6      -416.678    23406327.140    97247406.495 7      -324.083    23406327.560    97247407.484 7      -324.083
G09  24251414.960   127442056.015 6      6257.542    24251413.520   127442056.014 6      6257.542    24251442.220    99305576.202 6      4876.007    24251442.280    99305616.227 7      4876.007
> 2025 04 04 17 45 12.0000000  0 14
G02  22818931.940   119914292.982 7      1512.880    22818930.380   119914292.984 5      1512.880    22818936.100    93439727.659 5      1178.868
G03  20045274.160   105338624.131 8      1875.909    20045273.500   105338624.139 8      1875.909    20045279.720    82082068.247 8      1461.747    20045280.540    82082073.245 8      1461.747
G14  22255784.680   116954919.878 6      2132.204    22255783.780   116954919.891 2      2132.204    22255791.040    91133723.629 2      1661.458    22255792.220    91133752.614 6      1661.458
R03  19894355.020   106496038.265 7      1687.109    19894355.060   106496038.288 7      1687.109    19894365.740    82830296.433 8      1312.196    19894365.540    82830295.436 8      1312.196
G01  21274138.900   111796350.415 7      2039.528    21274137.900   111796350.423 6      2039.528    21274143.180    87114057.763 6      1589.242    21274143.600    87114058.764 8      1589.242
R04  20094922.640   107607397.795 7      5643.078    20094923.240   107607397.829 7      5643.078    20094935.920    83694702.269 8      4389.060    20094935.740    83694702.274 8      4389.060
R18  20457990.980   109206138.922 7      3033.014    20457991.120   109206138.915 7      3033.014    20458000.820    84938153.041 8      2359.011    20458000.880    84938155.043 8      2359.011
G17  22475893.980   118111621.487 7      5368.160    22475892.660   118111621.487 6      5368.160    22475898.380    92035046.581 6      4182.982    22475898.480    92035048.585 7      4182.982
G08  22781192.240   119715964.674 7      -188.862    22781190.840   119715964.687 7      -188.862    22781205.360    93285217.297 7      -147.165    22781206.180    93285222.312 7      -147.165
R17  22407048.440   119904638.468 7      1065.301    22407049.060   119904638.494 7      1065.301    22407065.340    93259236.621 7       828.567    22407065.080    93259234.624 7       828.567
R02  23648184.360   126191252.597 6     -1132.431    23648183.580   126191252.587 6     -1132.431    23648196.000    98148799.070 6      -880.780    23648196.760    98148801.069 6      -880.780
G04  22454892.680   118001258.165 7      5623.531    22454891.980   118001258.167 5      5623.531    22454904.080    91949080.072 5      4381.972    22454904.220    91949088.088 8      4381.972
R16  23406383.700   125032689.029 6      -416.371    23406378.120   125032689.019 6      -416.371    23406405.020    97247730.459 7      -323.844    23406405.560    97247731.451 7      -323.844
G09  24250224.220   127435798.387 6      6257.609    24250222.780   127435798.386 6      6257.609    24250251.140    99300700.157 6      4876.059    24250251.580    99300740.186 6      4876.059
> 2025 04 04 17 45 13.0000000  0 14
G02  22818643.880   119912780.112 7      1512.772    22818642.540   119912780.117 5      1512.772    22818648.420    93438548.806 5      1178.783
G03  20044917.320   105336748.420 8      1875.329    20044916.540   105336748.425 8      1875.329    20044922.820    82080606.658 8      1461.295    20044923.420    82080611.656 8      1461.295
G14  22255378.940   116952787.979 6      2131.587    22255378.120   116952787.994 2      2131.587    22255385.420    91132062.408 2      1660.977    22255386.220    91132091.412 6      1660.977
R03  19894039.940   106494351.593 8      1686.107    19894039.800   106494351.616 7      1686.107    19894050.640    82828984.584 8      1311.416    19894050.520    82828983.584 8      1311.416
G01  21273750.980   111794310.994 7      2039.228    21273749.860   111794311.001 6      2039.228    21273755.180    87112468.609 6      1589.008    21273755.600    87112469.607 8      1589.008
R04  20093868.920   107601755.027 7      5642.372    20093869.760   107601755.059 7      5642.372    20093882.140    83690313.452 8      4388.512    20093882.080    83690313.459 8      4388.512
R18  20457422.980   109203106.024 7      3032.588    20457423.100   109203106.023 7      3032.588    20457432.680    84935794.131 8      2358.680    20457433.000    84935796.135 8      2358.680
G17  22474872.100   118106253.432 7      5367.844    22474871.120   118106253.431 6      5367.844    22474876.840    92030863.686 6      4182.735    22474876.920    92030865.685 7      4182.735
G08  22781228.100   119716153.606 7      -189.241    22781226.960   119716153.619 7      -189.241    22781241.460    93285364.517 7      -147.461    22781242.180    93285369.525 7      -147.461
R17  22406849.460   119903573.317 7      1064.872    22406850.000   119903573.337 7      1064.872    22406866.160    93258408.164 7       828.234    22406866.200    93258406.164 7       828.234
R02  23648396.080   126192385.140 6     -1132.859    23648395.900   126192385.130 6     -1132.859    23648408.640    98149679.926 6      -881.113    23648409.040    98149681.932 6      -881.113
G04  22453822.400   117995634.683 7      5623.324    22453821.980   117995634.683 5      5623.324    22453834.000    91944698.150 5      4381.811    22453834.160    91944706.158 8      4381.811
R16  23406461.720   125033105.611 6      -416.959    23406455.800   125033105.598 6      -416.959    23406482.960    97248054.438 7      -324.301    23406483.260    97248055.434 7      -324.301
G09  24249033.580   127429540.538 6      6257.779    24249032.320   127429540.540 6      6257.779    24249060.120    99295823.932 6      4876.191    24249060.540    99295863.959 6      4876.191
> 2025 04 04 17 45 14.0000000  0 14
G02  22818356.100   119911267.363 7      1512.898    22818354.800   119911267.366 5      1512.898    22818360.600    93437370.041 5      1178.881
G03  20044560.400   105334873.240 8      1875.076    20044559.820   105334873.250 8      1875.076    20044566.000    82079145.485 8      1461.098    20044566.600    82079150.483 8      1461.098
G14  22254973.880   116950656.715 6      2131.099    22254972.600   116950656.733 2      2131.099    22254979.980    91130401.685 2      1660.597    22254981.420    91130430.687 6      1660.597
R03  19893724.640   106492665.836 8      1685.461    19893724.880   106492665.857 7      1685.461    19893735.740    82827673.446 8      1310.914    19893735.240    82827672.443 8      1310.914
G01  21273362.980   111792271.717 7      2039.438    21273361.700   111792271.722 6      2039.438    21273367.040    87110879.560 6      1589.173    21273367.700    87110880.560 8      1589.173
R04  20092815.240   107596112.999 7      5641.823    20092816.120   107596113.036 7      5641.823    20092828.400    83685925.227 8      4388.084    20092828.380    83685925.233 8      4388.084
R18  20456854.500   109200073.399 7      3032.675    20456855.140   109200073.391 7      3032.675    20456864.580    84933435.426 8      2358.747    20456864.700    84933437.430 8      2358.747
G17  22473850.760   118100885.589 7      5367.933    22473849.600   118100885.589 6      5367.933    22473855.360    92026680.956 6      4182.805    22473855.560    92026682.961 7      4182.805
G08  22781264.420   119716342.856 7      -189.200    22781262.960   119716342.866 7      -189.200    22781277.520    93285511.972 7      -147.429    22781278.160    93285516.984 7      -147.429
R17  22406650.380   119902508.465 7      1064.853    22406651.000   119902508.491 7      1064.853    22406667.340    93257579.944 7       828.219    22406667.400    93257577.948 7       828.219
R02  23648608.580   126193518.021 6     -1132.849    23648608.500   126193518.012 6     -1132.849    23648620.800    98150561.073 6      -881.105    23648621.440    98150563.072 6      -881.105
G04  22452752.480   117990011.490 7      5623.277    22452752.000   117990011.487 5      5623.277    22452763.880    91940316.454 5      4381.774    22452763.840    91940324.470 8      4381.774
R16  23406539.900   125033522.286 6      -416.623    23406534.520   125033522.287 6      -416.623    23406561.120    97248378.509 7      -324.040    23406561.160    97248379.505 7      -324.040
G09  24247842.700   127423282.695 6      6258.166    24247841.740   127423282.694 6      6258.166    24247869.280    99290947.713 6      4876.493    24247869.860    99290987.738 7      4876.493
> 2025 04 04 17 45 15.0000000  0 14
G02  22818068.300   119909754.539 7      1512.849    22818066.720   119909754.538 5      1512.849    22818072.740    93436191.214 5      1178.843
G03  20044203.680   105332998.395 8      1874.682    20044203.000   105332998.403 8      1874.682    20044209.200    82077684.569 8      1460.791    20044209.980    82077689.565 8      1460.791
G14  22254567.780   116948525.809 6      2130.911    22254567.120   116948525.827 2      2130.911    22254574.420    91128741.243 2      1660.450    22254575.620    91128770.226 6      1660.450
R03  19893410.040   106490980.773 7      1684.680    19893409.980   106490980.796 7      1684.680    19893421.180    82826362.847 8      1310.306    19893420.840    82826361.844 8      1310.306
G01  21272974.980   111790232.395 7      2039.396    21272973.660   111790232.403 6      2039.396    21272978.860    87109290.485 6      1589.140    21272979.360    87109291.484 8      1589.140
R04  20091761.800   107590471.488 7      5641.259    20091762.760   107590471.529 7      5641.259    20091775.020    83681537.393 8      4387.646    20091775.000    83681537.399 8      4387.646
R18  20456286.400   109197040.839 7      3032.550    20456286.900   109197040.840 7      3032.550    20456296.520    84931076.775 8      2358.650    20456296.480    84931078.779 8      2358.650
G17  22472829.340   118095517.789 7      5367.791    22472828.060   118095517.788 6      5367.791    22472833.900    92022498.260 5      4182.695    22472833.980    92022500.269 7      4182.695
G08  22781300.340   119716532.234 7      -189.437    22781298.940   119716532.249 7      -189.437    22781313.420    93285659.541 7      -147.613    22781314.440    93285664.553 7      -147.613
R17  22406451.540   119901443.750 7      1064.692    22406452.040   119901443.775 7      1064.692    22406468.100    93256751.834 7       828.094    22406468.400    93256749.841 7       828.094
R02  23648820.240   126194651.079 6     -1133.083    23648820.660   126194651.085 6     -1133.083    23648832.820    98151442.352 6      -881.287    23648833.760    98151444.354 6      -881.287
G04  22451682.480   117984388.353 7      5623.161    22451682.180   117984388.358 5      5623.161    22451693.900    91935934.805 5      4381.684    22451693.840    91935942.816 8      4381.684
R16  23406618.020   125033938.913 6      -416.545    23406612.920   125033938.904 6      -416.545    23406639.420    97248702.530 7      -323.979    23406639.340    97248703.525 7      -323.979
G09  24246651.960   127417024.649 6      6258.227    24246650.800   127417024.649 6      6258.227    24246678.400    99286071.338 6      4876.541    24246678.820    99286111.367 7      4876.541
> 2025 04 04 17 45 16.0000000  0 14
G02  22817780.460   119908241.574 7      1513.030    22817778.820   119908241.574 5      1513.030    22817784.960    93435012.279 5      1178.984
G03  20043846.940   105331123.856 8      1874.350    20043846.280   105331123.866 8      1874.350    20043852.540    82076223.897 8      1460.532    20043853.400    82076228.895 8      1460.532
G14  22254162.620   116946395.291 6      2130.439    22254161.800   116946395.307 2      2130.439    22254169.200    91127081.101 2      1660.082    22254169.980    91127110.101 6      1660.082
R03  19893095.520   106489296.389 7      1684.009    19893095.420   106489296.407 7      1684.009    19893106.420    82825052.769 8      1309.785    19893106.160    82825051.766 8      1309.785
G01  21272586.760   111788193.024 7      2039.315    21272585.620   111788193.034 6      2039.315    21272590.820    87107701.370 6      1589.077    21272591.200    87107702.371 8      1589.077
R04  20090708.440   107584830.493 7      5640.751    20090709.240   107584830.526 7      5640.751    20090721.760    83677149.959 8      4387.251    20090721.600    83677149.963 8      4387.251
R18  20455718.540   109194008.326 7      3032.430    20455719.040   109194008.324 7      3032.430    20455728.320    84928718.156 8      2358.557    20455728.460    84928720.160 8      2358.557
G17  22471808.020   118090149.985 7      5367.743    22471806.560   118090149.985 6      5367.743    22471812.480    92018315.565 6      4182.657    22471812.600    92018317.569 7      4182.657
G08  22781336.200   119716721.702 7      -189.593    22781335.000   119716721.712 7      -189.593    22781349.720    93285807.176 7      -147.734    22781350.220    93285812.184 7      -147.734
R17  22406252.620   119900379.179 7      1064.379    22406253.400   119900379.199 7      1064.379    22406269.260    93255923.820 7       827.851    22406269.340    93255921.820 7       827.851
R02  23649033.040   126195784.273 6     -1133.155    23649032.900   126195784.252 6     -1133.155    23649045.460    98152323.704 6      -881.342    23649046.320    98152325.695 6      -881.342
G04  22450612.680   117978765.265 7      5623.038    22450612.000   117978765.270 5      5623.038    22450623.740    91931553.192 5      4381.588    22450623.660    91931561.208 8      4381.588
R16  23406695.700   125034355.442 6      -416.632    23406691.100   125034355.435 6      -416.632    23406717.360    97249026.473 7      -324.047    23406717.360    97249027.471 7      -324.047
G09  24245460.880   127410766.351 6      6258.294    24245459.940   127410766.359 6      6258.294    24245487.540    99281194.773 6      4876.593    24245487.860    99281234.806 7      4876.593
> 2025 04 04 17 45 17.0000000  0 14
G02  22817492.440   119906728.566 7      1513.090    22817490.940   119906728.571 5      1513.090    22817497.020    93433833.315 5      1179.031
G03  20043490.240   105329249.684 8      1874.046    20043489.680   105329249.689 8      1874.046    20043495.820    82074763.502 8      1460.296    20043496.980    82074768.500 8      1460.296
G14  22253757.140   116944265.207 6      2130.041    22253756.500   116944265.223 2      2130.041    22253763.880    91125421.302 2      1659.772    22253764.260    91125450.285 6      1659.772
R03  19892780.900   106487612.723 8      1683.298    19892780.900   106487612.749 7      1683.298    19892792.000    82823743.259 8      1309.232    19892791.740    82823742.258 8      1309.232
G01  21272198.660   111786153.610 7      2039.495    21272197.640   111786153.615 6      2039.495    21272202.720    87106112.217 6      1589.217    21272203.160    87106113.218 8      1589.217
R04  20089654.700   107579190.025 7      5640.235    20089656.000   107579190.059 7      5640.235    20089668.380    83672762.939 8      4386.849    20089668.220    83672762.941 8      4386.849
R18  20455150.120   109190975.900 7      3032.490    20455150.820   109190975.904 7      3032.490    20455160.260    84926359.609 8      2358.604    20455160.260    84926361.613 8      2358.604
G17  22470786.200   118084782.229 7      5367.821    22470785.220   118084782.234 6      5367.821    22470790.880    92014132.906 6      4182.718    22470790.920    92014134.910 7      4182.718
G08  22781372.280   119716911.324 7      -189.730    22781371.100   119716911.337 7      -189.730    22781385.740    93285954.928 7      -147.842    22781386.440    93285959.938 7      -147.842
R17  22406053.400   119899314.672 7      1064.438    22406053.900   119899314.695 7      1064.438    22406070.700    93255095.875 7       827.897    22406070.440    93255093.871 7       827.897
R02  23649245.740   126196917.570 6     -1133.313    23649245.180   126196917.571 6     -1133.313    23649258.060    98153205.168 6      -881.466    23649258.780    98153207.166 6      -881.466
G04  22449542.480   117973142.261 7      5623.068    22449541.900   117973142.269 5      5623.068    22449553.700    91927171.647 5      4381.611    22449553.600    91927179.655 8      4381.611
R16  23406774.020   125034771.831 6      -416.239    23406768.520   125034771.830 6      -416.239    23406795.640    97249350.311 7      -323.741    23406795.100    97249351.313 7      -323.741
G09  24244269.760   127404507.869 6      6258.624    24244268.880   127404507.877 6      6258.624    24244296.800    99276318.048 6      4876.850    24244296.760    99276358.063 7      4876.850
> 2025 04 04 17 45 18.0000000  0 14
G02  22817204.440   119905215.607 7      1512.964    22817203.140   119905215.606 5      1512.964    22817209.100    93432654.388 5      1178.933
G03  20043133.800   105327375.972 8      1873.467    20043133.160   105327375.980 8      1873.467    20043139.260    82073303.477 8      1459.844    20043140.180    82073308.475 8      1459.844
G14  22253351.440   116942135.670 6      2129.278    22253351.340   116942135.680 2      2129.278    22253358.780    91123761.922 2      1659.178    22253359.100    91123790.909 6      1659.178
R03  19892466.280   106485929.889 7      1682.463    19892466.600   106485929.915 7      1682.463    19892477.720    82822434.397 8      1308.582    19892477.220    82822433.393 8      1308.582
G01  21271810.660   111784114.294 7      2039.329    21271809.660   111784114.301 6      2039.329    21271814.600    87104523.147 6      1589.087    21271815.060    87104524.146 8      1589.087
R04  20088601.500   107573550.179 7      5639.530    20088602.920   107573550.210 7      5639.530    20088615.180    83668376.402 8      4386.301    20088615.200    83668376.407 8      4386.301
R18  20454582.140   109187943.701 7      3032.118    20454582.660   109187943.697 7      3032.118    20454592.400    84924001.230 8      2358.314    20454592.440    84924003.234 8      2358.314
G17  22469764.660   118079414.665 7      5367.526    22469763.800   118079414.662 6      5367.526    22469769.380    92009950.390 6      4182.488    22469769.660    92009952.395 7      4182.488
G08  22781408.500   119717101.189 7      -189.906    22781407.420   119717101.194 7      -189.906    22781421.980    93286102.864 7      -147.979    22781422.960    93286107.872 7      -147.979
R17  22405854.580   119898250.439 7      1064.116    22405855.120   119898250.470 7      1064.116    22405871.820    93254268.137 7       827.646    22405871.400    93254266.136 7       827.646
R02  23649458.340   126198051.138 6     -1133.531    23649457.520   126198051.125 6     -1133.531    23649469.980    98154086.813 6      -881.635    23649471.180    98154088.808 6      -881.635
G04  22448472.480   117967519.473 7      5622.715    22448472.040   117967519.478 5      5622.715    22448483.640    91922790.268 5      4381.337    22448483.860    91922798.276 8      4381.337
R16  23406852.360   125035188.325 6      -416.558    23406846.380   125035188.331 6      -416.558    23406873.640    97249674.238 7      -323.989    23406873.200    97249675.244 7      -323.989
G09  24243079.060   127398249.301 6      6258.642    24243077.860   127398249.306 6      6258.642    24243105.980    99271441.270 6      4876.864    24243106.280    99271481.293 7      4876.864
> 2025 04 04 17 45 19.0000000  0 14
G02  22816916.800   119903702.787 7      1512.785    22816915.260   119903702.784 5      1512.785    22816921.280    93431475.570 5      1178.793
G03  20042777.260   105325502.836 8      1872.902    20042776.660   105325502.841 8      1872.902    20042782.820    82071843.888 8      1459.404    20042783.820    82071848.888 8      1459.404
G14  22252946.320   116940006.739 6      2128.648    22252946.160   116940006.749 2      2128.648    22252953.740    91122103.017 2      1658.686    22252954.100    91122132.009 6      1658.686
R03  19892152.260   106484248.024 7      1681.454    19892152.520   106484248.050 7      1681.454    19892163.460    82821126.288 8      1307.798    19892163.160    82821125.287 8      1307.798
G01  21271422.560   111782075.190 7      2039.058    21271421.560   111782075.198 6      2039.058    21271426.580    87102934.241 6      1588.877    21271426.880    87102935.245 8      1588.877
R04  20087548.960   107567911.083 7      5638.794    20087549.980   107567911.111 7      5638.794    20087562.060    83663990.440 8      4385.728    20087562.140    83663990.445 8      4385.728
R18  20454014.280   109184911.783 7      3031.775    20454014.640   109184911.787 7      3031.775    20454024.480    84921643.083 8      2358.047    20454024.440    84921645.090 8      2358.047
G17  22468743.480   118074047.358 7      5367.286    22468742.440   118074047.358 6      5367.286    22468747.980    92005768.078 6      4182.301    22468748.320    92005770.082 7      4182.301
G08  22781444.820   119717291.424 7      -190.359    22781443.500   119717291.439 7      -190.359    22781458.100    93286251.099 7      -148.332    22781459.340    93286256.111 7      -148.332
R17  22405655.660   119897186.617 7      1063.671    22405656.000   119897186.656 7      1063.671    22405673.200    93253440.720 7       827.300    22405672.900    93253438.719 7       827.300
R02  23649671.360   126199185.158 6     -1134.246    23649669.620   126199185.140 6     -1134.246    23649683.200    98154968.835 6      -882.191    23649684.000    98154970.833 6      -882.191
G04  22447402.720   117961896.987 7      5622.380    22447402.040   117961896.992 5      5622.380    22447413.760    91918409.123 5      4381.076    22447414.080    91918417.141 8      4381.076
R16  23406929.940   125035604.958 6      -416.644    23406924.580   125035604.959 6      -416.644    23406951.680    97249998.263 7      -324.057    23406951.700    97249999.263 7      -324.057
G09  24241888.060   127391990.753 6      6258.586    24241887.040   127391990.750 6      6258.586    24241915.300    99266564.500 6      4876.820    24241915.380    99266604.521 7      4876.820
> 2025 04 04 17 45 20.0000000  0 14
G02  22816628.860   119902189.954 7      1512.857    22816627.440   119902189.957 5      1512.857    22816633.320    93430296.741 5      1178.849
G03  20042420.940   105323630.107 8      1872.620    20042420.280   105323630.114 8      1872.620    20042426.400    82070384.627 8      1459.185    20042427.540    82070389.623 8      1459.185
G14  22252541.580   116937878.290 6      2128.214    22252541.140   116937878.302 2      2128.214    22252548.760    91120444.489 2      1658.348    22252549.260    91120473.481 6      1658.348
R03  19891838.100   106482566.930 8      1680.831    19891838.660   106482566.951 7      1680.831    19891849.460    82819818.762 8      1307.313    19891849.140    82819817.759 8      1307.313
G01  21271034.460   111780036.110 7      2039.101    21271033.640   111780036.118 6      2039.101    21271038.680    87101345.350 6      1588.910    21271038.880    87101346.347 8      1588.910
R04  20086496.000   107562272.580 7      5638.224    20086496.940   107562272.612 7      5638.224    20086509.240    83659604.953 8      4385.285    20086508.920    83659604.958 8      4385.285
R18  20453446.360   109181880.014 7      3031.726    20453446.580   109181880.020 7      3031.726    20453456.420    84919285.045 8      2358.009    20453456.460    84919287.049 8      2358.009
G17  22467722.080   118068680.162 7      5367.193    22467721.120   118068680.159 6      5367.193    22467726.760    92001585.851 5      4182.228    22467727.020    92001587.855 7      4182.228
G08  22781481.100   119717481.874 7      -190.531    22781479.840   119717481.887 7      -190.531    22781494.260    93286399.496 7      -148.466    22781495.460    93286404.504 7      -148.466
R17  22405456.840   119896122.993 7      1063.574    22405457.960   119896123.019 7      1063.574    22405474.640    93252613.441 7       827.224    22405474.360    93252611.437 7       827.224
R02  23649883.960   126200319.307 6     -1134.119    23649882.720   126200319.292 6     -1134.119    23649894.780    98155850.926 6      -882.093    23649896.360    98155852.924 6      -882.093
G04  22446332.540   117956274.659 7      5622.257    22446332.260   117956274.669 5      5622.257    22446343.840    91914028.102 5      4380.980    22446343.940    91914036.114 8      4380.980
R16  23407007.920   125036021.644 6      -416.730    23407001.960   125036021.634 6      -416.730    23407029.700    97250322.323 7      -324.124    23407029.780    97250323.325 7      -324.124
G09  24240697.060   127385732.087 6      6258.634    24240695.980   127385732.092 6      6258.634    24240724.420    99261687.653 6      4876.857    24240724.760    99261727.674 7      4876.857
> 2025 04 04 17 45 21.0000000  0 14
G02  22816341.140   119900676.988 7      1513.119    22816339.600   119900676.993 5      1513.119    22816345.580    93429117.808 5      1179.054
G03  20042064.580   105321757.651 8      1872.464    20042064.060   105321757.653 8      1872.464    20042070.080    82068925.572 8      1459.063    20042071.260    82068930.570 8      1459.063
G14  22252137.160   116935750.187 6      2127.986    22252136.220   116935750.200 2      2127.986    22252143.840    91118786.227 2      1658.171    22252143.960    91118815.215 6      1658.171
R03  19891524.000   106480886.476 8      1680.296    19891524.880   106480886.496 7      1680.296    19891535.360    82818511.746 8      1306.897    19891535.140    82818510.747 8      1306.897
G01  21270646.440   111777996.920 7      2039.376    21270645.560   111777996.928 6      2039.376    21270650.640    87099756.371 6      1589.124    21270650.980    87099757.372 8      1589.124
R04  20085442.980   107556634.563 8      5637.869    20085444.300   107556634.594 7      5637.869    20085456.420    83655219.835 8      4385.009    20085456.120    83655219.837 8      4385.009
R18  20452878.560   109178848.245 7      3031.881    20452878.840   109178848.246 7      3031.881    20452888.480    84916927.000 8      2358.130    20452888.500    84916929.006 8      2358.130
G17  22466700.840   118063312.921 7      5367.307    22466699.760   118063312.923 6      5367.307    22466705.300    91997403.595 5      4182.318    22466705.560    91997405.604 7      4182.318
G08  22781517.240   119717672.369 7      -190.485    22781516.180   119717672.385 7      -190.485    22781530.580    93286547.932 7      -148.430    22781531.540    93286552.942 7      -148.430
R17  22405258.200   119895059.354 7      1063.666    22405258.740   119895059.390 7      1063.666    22405275.880    93251786.176 7       827.296    22405275.400    93251784.176 7       827.296
R02  23650096.460   126201453.557 6     -1134.141    23650095.740   126201453.542 6     -1134.141    23650107.600    98156733.133 6      -882.110    23650108.640    98156735.137 6      -882.110
G04  22445262.540   117950652.320 7      5622.465    22445262.380   117950652.325 5      5622.465    22445273.980    91909647.071 5      4381.142    22445274.160    91909655.085 8      4381.142
R16  23407086.000   125036438.145 6      -416.379    23407080.640   125036438.133 6      -416.379    23407107.240    97250646.244 7      -323.850    23407107.900    97250647.244 7      -323.850
G09  24239506.020   127379473.080 6      6259.359    24239504.840   127379473.087 6      6259.359    24239533.260    99256810.533 6      4877.422    24239533.720    99256850.558 7      4877.422
> 2025 04 04 17 45 22.0000000  0 14
G02  22816053.380   119899164.108 7      1512.674    22816051.720   119899164.113 5      1512.674    22816057.620    93427938.945 5      1178.707
G03  20041708.620   105319885.729 8      1871.562    20041707.700   105319885.731 8      1871.562    20041713.940    82067466.931 8      1458.360    20041714.860    82067471.929 8      1458.360
G14  22251731.740   116933622.662 6      2127.019    22251731.320   116933622.675 2      2127.019    22251739.020    91117128.416 2      1657.418    22251739.360    91117157.409 6      1657.418
R03  19891210.420   106479206.918 7      1678.960    19891210.740   106479206.949 7      1678.960    19891221.680    82817205.440 8      1305.858    19891221.640    82817204.439 8      1305.858
G01  21270258.500   111775957.898 7      2038.886    21270257.460   111775957.906 6      2038.886    21270262.740    87098167.520 6      1588.742    21270262.920    87098168.518 8      1588.742
R04  20084390.140   107550997.263 7      5636.852    20084391.280   107550997.300 7      5636.852    20084403.740    83650835.283 8      4384.218    20084403.280    83650835.285 8      4384.218
R18  20452310.640   109175816.730 8      3031.215    20452310.840   109175816.728 7      3031.215    20452320.680    84914569.157 8      2357.612    20452320.540    84914571.165 8      2357.612
G17  22465679.960   118057945.901 7      5366.832    22465678.420   118057945.906 6      5366.832    22465683.960    91993221.508 6      4181.947    22465684.080    91993223.512 7      4181.947
G08  22781553.420   119717863.190 7      -191.135    22781552.500   119717863.198 7      -191.135    22781566.980    93286696.609 7      -148.936    22781567.600    93286701.619 7      -148.936
R17  22405059.420   119893996.022 7      1063.142    22405060.480   119893996.053 7      1063.142    22405077.280    93250959.125 7       826.888    22405076.980    93250957.120 7       826.888
R02  23650308.760   126202588.125 7     -1134.907    23650307.960   126202588.113 6     -1134.907    23650320.560    98157615.596 6      -882.705    23650321.320    98157617.595 6      -882.705
G04  22444192.660   117945030.260 7      5621.732    22444192.580   117945030.265 5      5621.732    22444204.160    91905266.259 5      4380.570    22444204.220    91905274.277 8      4380.570
R16  23407163.660   125036854.733 6      -416.626    23407159.360   125036854.715 6      -416.626    23407185.500    97250970.227 7      -324.042    23407185.920    97250971.233 7      -324.042
G09  24238314.680   127373214.101 6      6258.886    24238313.720   127373214.106 6      6258.886    24238342.180    99251933.435 6      4877.054    24238343.000    99251973.460 7      4877.054
> 2025 04 04 17 45 23.0000000  0 14
G02  22815765.560   119897651.643 7      1512.304    22815763.820   119897651.645 6      1512.304    22815769.840    93426760.401 5      1178.419
G03  20041352.420   105318014.621 8      1870.719    20041351.760   105318014.626 8      1870.719    20041357.880    82066008.931 8      1457.703    20041358.720    82066013.929 8      1457.703
G14  22251327.080   116931496.049 6      2126.088    22251326.660   116931496.059 2      2126.088    22251334.280    91115471.315 2      1656.692    22251334.040    91115500.314 6      1656.692
R03  19890897.000   106477528.570 8      1677.782    19890897.600   106477528.588 7      1677.782    19890908.060    82815900.052 8      1304.942    19890907.880    82815899.051 8      1304.942
G01  21269870.540   111773919.320 7      2038.357    21269869.640   111773919.328 6      2038.357    21269874.820    87096579.020 6      1588.330    21269875.080    87096580.025 8      1588.330
R04  20083337.600   107545360.999 7      5635.769    20083338.800   107545361.033 7      5635.769    20083351.040    83646451.528 8      4383.376    20083350.720    83646451.531 8      4383.376
R18  20451742.940   109172785.764 7      3030.723    20451742.960   109172785.762 7      3030.723    20451752.860    84912211.743 8      2357.229    20451752.920    84912213.754 8      2357.229
G17  22464658.520   118052579.419 7      5366.307    22464657.220   118052579.419 6      5366.307    22464662.840    91989039.838 6      4181.538    22464663.000    91989041.842 7      4181.538
G08  22781590.020   119718054.610 7      -191.685    22781588.840   119718054.620 7      -191.685    22781603.440    93286845.757 7      -149.365    22781603.880    93286850.767 7      -149.365
R17  22404861.060   119892933.310 7      1062.442    22404862.080   119892933.352 7      1062.442    22404878.720    93250132.568 7       826.344    22404878.280    93250130.564 7       826.344
R02  23650521.900   126203723.325 7     -1135.483    23650520.580   126203723.315 6     -1135.483    23650533.760    98158498.535 6      -883.153    23650534.420    98158500.537 6      -883.153
G04  22443122.960   117939408.754 7      5621.206    22443122.780   117939408.759 5      5621.206    22443134.340    91900885.879 5      4380.160    22443134.640    91900893.887 7      4380.160
R16  23407242.000   125037271.798 6      -417.333    23407237.140   125037271.804 6      -417.333    23407263.160    97251294.609 7      -324.592    23407263.700    97251295.611 6      -324.592
G09  24237123.860   127366955.378 6      6258.702    24237122.940   127366955.383 6      6258.702    24237150.960    99247056.542 6      4876.911    24237151.740    99247096.570 7      4876.911
> 2025 04 04 17 45 24.0000000  0 14
G02  22815477.560   119896139.173 7      1512.631    22815476.080   119896139.175 5      1512.631    22815482.000    93425581.863 6      1178.673
G03  20040996.360   105316143.954 8      1870.510    20040995.740   105316143.964 8      1870.510    20041001.940    82064551.279 8      1457.540    20041002.920    82064556.281 8      1457.540
G14  22250922.200   116929369.888 6      2125.882    22250922.180   116929369.901 2      2125.882    22250929.700    91113814.570 2      1656.531    22250930.140    91113843.578 6      1656.531
R03  19890583.660   106475850.996 8      1677.271    19890584.140   106475851.011 7      1677.271    19890594.740    82814595.276 8      1304.544    19890594.500    82814594.275 8      1304.544
G01  21269482.260   111771880.779 7      2038.616    21269481.680   111771880.789 6      2038.616    21269486.980    87094990.550 6      1588.532    21269487.020    87094991.554 8      1588.532
R04  20082285.520   107539725.346 8      5635.477    20082286.600   107539725.377 7      5635.477    20082298.720    83642068.253 8      4383.148    20082298.460    83642068.255 8      4383.148
R18  20451175.160   109169754.972 7      3030.890    20451175.160   109169754.975 7      3030.890    20451185.080    84909854.465 8      2357.359    20451185.080    84909856.473 8      2357.359
G17  22463637.320   118047213.064 7      5366.381    22463636.080   118047213.061 6      5366.381    22463641.600    91984858.266 6      4181.596    22463641.880    91984860.271 7      4181.596
G08  22781626.540   119718246.248 7      -191.523    22781625.360   119718246.255 7      -191.523    22781639.780    93286995.079 7      -149.239    22781640.580    93287000.091 7      -149.239
R17  22404662.520   119891870.848 7      1062.407    22404664.000   119891870.882 7      1062.407    22404680.140    93249306.198 7       826.317    22404679.740    93249304.194 7       826.317
R02  23650734.580   126204858.763 6     -1135.582    23650733.160   126204858.753 6     -1135.582    23650746.220    98159381.657 6      -883.231    23650747.160    98159383.665 6      -883.231
G04  22442053.520   117933787.403 7      5621.352    22442053.080   117933787.408 5      5621.352    22442064.740    91896505.618 5      4380.275    22442064.940    91896513.634 8      4380.275
R16  23407319.680   125037688.837 6      -417.010    23407315.380   125037688.870 6      -417.010    23407341.620    97251618.962 6      -324.341    23407342.160    97251619.962 6      -324.341
G09  24235933.120   127360696.547 6      6259.036    24235931.880   127360696.549 6      6259.036    24235959.920    99242179.562 6      4877.171    24235960.800    99242219.589 7      4877.171
> 2025 04 04 17 45 25.0000000  0 14
G02  22815189.860   119894626.642 7      1512.407    22815188.240   119894626.644 6      1512.407    22815194.120    93424403.267 6      1178.499
G03  20040640.360   105314273.606 8      1869.996    20040639.800   105314273.610 8      1869.996    20040645.960    82063093.869 8      1457.140    20040647.260    82063098.867 8      1457.140
G14  22250518.220   116927244.126 6      2125.410    22250517.520   116927244.139 2      2125.410    22250525.220    91112158.132 2      1656.164    22250525.060    91112187.140 6      1656.164
R03  19890270.960   106474174.107 8      1676.416    19890270.860   106474174.124 7      1676.416    19890281.620    82813291.035 8      1303.879    19890281.460    82813290.032 8      1303.879
G01  21269094.500   111769842.201 7      2038.488    21269093.640   111769842.203 6      2038.488    21269099.000    87093402.050 6      1588.432    21269099.220    87093403.051 8      1588.432
R04  20081233.280   107534090.201 7      5634.786    20081234.060   107534090.238 7      5634.786    20081246.540    83637685.373 8      4382.611    20081246.300    83637685.373 8      4382.611
R18  20450607.520   109166724.278 7      3030.477    20450607.420   109166724.274 7      3030.477    20450617.400    84907497.259 8      2357.038    20450617.320    84907499.269 8      2357.038
G17  22462616.060   118041846.713 7      5366.214    22462614.900   118041846.713 6      5366.214    22462620.600    91980676.705 5      4181.466    22462620.980    91980678.703 7      4181.466
G08  22781663.060   119718438.033 7      -192.133    22781661.620   119718438.043 7      -192.133    22781676.300    93287144.514 7      -149.714    22781677.080    93287149.520 7      -149.714
R17  22404464.000   119890808.495 7      1062.134    22404465.180   119890808.529 7      1062.134    22404481.500    93248479.922 7       826.104    22404481.520    93248477.918 7       826.104
R02  23650947.160   126205994.331 6     -1135.972    23650946.160   126205994.318 6     -1135.972    23650959.000    98160264.886 6      -883.534    23650959.800    98160266.889 6      -883.534
G04  22440983.940   117928166.129 7      5621.075    22440983.440   117928166.128 5      5621.075    22440994.960    91892125.416 5      4380.058    22440995.240    91892133.426 8      4380.058
R16  23407397.880   125038105.824 6      -417.129    23407394.200   125038105.828 6      -417.129    23407419.280    97251943.242 6      -324.434    23407420.100    97251944.253 6      -324.434
G09  24234741.860   127354437.510 6      6258.976    24234740.700   127354437.515 6      6258.976    24234768.660    99237302.413 6      4877.124    24234769.120    99237342.436 7      4877.124
> 2025 04 04 17 45 26.0000000  0 14
G02  22814902.100   119893114.364 7      1512.247    22814900.500   119893114.366 6      1512.247    22814906.280    93423224.867 6      1178.374
G03  20040284.660   105312403.956 8      1869.414    20040284.080   105312403.961 8      1869.414    20040290.240    82061636.999 8      1456.686    20040291.420    82061641.999 8      1456.686
G14  22250113.840   116925119.135 5      2124.845    22250113.200   116925119.147 2      2124.845    22250120.720    91110502.292 2      1655.723    22250121.460    91110531.284 6      1655.723
R03  19889957.520   106472498.291 8      1675.440    19889957.700   106472498.314 7      1675.440    19889968.420    82811987.627 8      1303.120    19889968.220    82811986.624 8      1303.120
G01  21268706.800   111767803.941 7      2038.239    21268705.680   111767803.948 6      2038.239    21268711.160    87091813.799 6      1588.238    21268711.400    87091814.799 8      1588.238
R04  20080180.920   107528455.924 8      5633.989    20080181.900   107528455.966 7      5633.989    20080194.340    83633303.172 8      4381.992    20080194.060    83633303.174 8      4381.992
R18  20450040.240   109163693.993 7      3030.164    20450039.800   109163693.992 7      3030.164    20450049.640    84905140.375 8      2356.794    20450050.160    84905142.385 8      2356.794
G17  22461595.380   118036480.749 7      5365.946    22461593.720   118036480.746 6      5365.946    22461599.480    91976495.440 6      4181.256    22461599.820    91976497.447 7      4181.256
G08  22781699.680   119718630.247 7      -192.183    22781698.640   119718630.257 7      -192.183    22781712.920    93287294.284 7      -149.753    22781713.760    93287299.297 7      -149.753
R17  22404265.320   119889746.608 7      1061.767    22404266.880   119889746.644 7      1061.767    22404283.360    93247654.014 7       825.818    22404282.900    93247652.012 7       825.818
R02  23651160.540   126207130.457 6     -1136.407    23651159.220   126207130.436 6     -1136.407    23651172.220    98161148.531 6      -883.872    23651172.720    98161150.530 6      -883.872
G04  22439914.300   117922545.274 7      5620.789    22439913.780   117922545.279 5      5620.789    22439925.520    91887745.544 5      4379.836    22439925.580    91887753.550 8      4379.836
R16  23407476.400   125038523.055 6      -417.196    23407472.140   125038523.064 6      -417.196    23407497.880    97252267.739 6      -324.486    23407498.260    97252268.749 7      -324.486
G09  24233551.180   127348178.561 6      6258.969    24233549.600   127348178.558 6      6258.969    24233577.400    99232425.355 6      4877.119    24233577.660    99232465.386 7      4877.119
> 2025 04 04 17 45 27.0000000  0 14
G02  22814614.240   119891602.083 7      1512.322    22814612.840   119891602.085 6      1512.322    22814618.560    93422046.468 6      1178.432
G03  20039928.780   105310534.745 8      1868.940    20039928.400   105310534.750 8      1868.940    20039934.620    82060180.477 8      1456.317    20039935.820    82060185.475 8      1456.317
G14  22249709.900   116922994.652 5      2124.261    22249708.900   116922994.665 2      2124.261    22249716.480    91108846.852 2      1655.269    22249717.440    91108875.841 6      1655.269
R03  19889644.260   106470823.307 8      1674.530    19889645.220   106470823.327 7      1674.530    19889655.540    82810684.866 8      1302.412    19889655.100    82810683.863 8      1302.412
G01  21268318.840   111765765.741 7      2038.160    21268317.880   111765765.749 6      2038.160    21268323.240    87090225.594 6      1588.176    21268323.620    87090226.595 8      1588.176
R04  20079128.940   107522822.282 7      5633.214    20079130.140   107522822.316 7      5633.214    20079142.300    83628921.459 8      4381.389    20079142.140    83628921.455 8      4381.389
R18  20449472.080   109160663.863 7      3030.055    20449471.920   109160663.861 7      3030.055    20449482.240    84902783.613 8      2356.710    20449482.180    84902785.619 8      2356.710
G17  22460574.040   118031114.933 7      5365.722    22460572.580   118031114.932 6      5365.722    22460578.260    91972314.288 6      4181.082    22460578.720    91972316.293 7      4181.082
G08  22781736.100   119718822.720 7      -192.576    22781735.120   119718822.733 7      -192.576    22781749.500    93287444.262 7      -150.059    22781750.140    93287449.276 7      -150.059
R17  22404067.460   119888684.919 7      1061.582    22404068.220   119888684.955 7      1061.582    22404085.340    93246828.259 7       825.675    22404084.640    93246826.252 7       825.675
R02  23651373.280   126208266.818 6     -1136.574    23651371.600   126208266.805 6     -1136.574    23651384.940    98162032.377 6      -884.002    23651385.520    98162034.377 6      -884.002
G04  22438844.740   117916924.601 7      5620.496    22438844.140   117916924.606 5      5620.496    22438855.900    91883365.814 5      4379.607    22438855.840    91883373.823 8      4379.607
R16  23407553.540   125038940.369 6      -417.507    23407549.620   125038940.378 6      -417.507    23407576.120    97252592.293 7      -324.728    23407576.500    97252593.308 7      -324.728
G09  24232360.280   127341919.553 6      6259.128    24232358.260   127341919.558 6      6259.128    24232386.260    99227548.227 6      4877.242    24232387.020    99227588.248 7      4877.242
> 2025 04 04 17 45 28.0000000  0 14
G02  22814326.440   119890089.736 7      1512.589    22814325.180   119890089.738 6      1512.589    22814330.860    93420868.018 6      1178.640
G03  20039573.300   105308665.878 8      1868.798    20039572.760   105308665.881 8      1868.798    20039578.960    82058724.217 8      1456.207    20039579.920    82058729.215 8      1456.207
G14  22249305.300   116920870.570 5      2124.027    22249304.560   116920870.583 2      2124.027    22249312.380    91107191.722 2      1655.086    22249312.660    91107220.732 6      1655.086
R03  19889331.960   106469149.022 8      1674.057    19889332.520   106469149.048 7      1674.057    19889342.780    82809382.648 8      1302.044    19889342.300    82809381.649 8      1302.044
G01  21267930.860   111763727.502 7      2038.365    21267930.080   111763727.515 6      2038.365    21267935.400    87088637.362 6      1588.337    21267935.740    87088638.367 8      1588.337
R04  20078076.820   107517189.132 7      5633.029    20078078.200   107517189.169 7      5633.029    20078090.640    83624540.126 8      4381.245    20078090.200    83624540.124 8      4381.245
R18  20448904.420   109157633.858 7      3030.084    20448904.460   109157633.846 7      3030.084    20448914.540    84900426.932 8      2356.732    20448914.500    84900428.942 8      2356.732
G17  22459552.740   118025749.152 7      5365.853    22459551.420   118025749.147 6      5365.853    22459557.320    91968133.167 6      4181.184    22459557.500    91968135.174 7      4181.184
G08  22781772.940   119719015.336 7      -192.595    22781771.820   119719015.351 7      -192.595    22781786.220    93287594.346 7      -150.074    22781786.620    93287599.354 7      -150.074
R17  22403868.820   119887623.334 7      1061.665    22403869.680   119887623.378 7      1061.665    22403886.800    93246002.584 7       825.739    22403886.280    93246000.579 7       825.739
R02  23651585.660   126209403.341 6     -1136.568    23651584.480   126209403.347 6     -1136.568    23651597.780    98162916.352 6      -883.997    23651598.820    98162918.354 6      -883.997
G04  22437774.780   117911304.010 7      5620.639    22437774.520   117911304.015 5      5620.639    22437786.300    91878986.146 5      4379.719    22437786.540    91878994.152 8      4379.719
R16  23407631.700   125039357.600 6      -417.115    23407628.420   125039357.609 6      -417.115    23407654.100    97252916.781 7      -324.423    23407654.900    97252917.787 7      -324.423
G09  24231169.120   127335660.325 6      6259.471    24231166.900   127335660.335 6      6259.471    24231195.340    99222670.926 6      4877.510    24231196.260    99222710.950 7      4877.510
> 2025 04 04 17 45 29.0000000  0 14
G02  22814038.720   119888577.437 7      1512.315    22814037.340   119888577.442 6      1512.315    22814043.120    93419689.603 6      1178.427
G03  20039217.820   105306797.466 8      1868.185    20039217.200   105306797.471 8      1868.185    20039223.360    82057268.316 8      1455.729    20039224.320    82057273.314 8      1455.729
G14  22248901.160   116918747.026 5      2123.188    22248900.500   116918747.038 2      2123.188    22248908.280    91105537.015 2      1654.432    22248909.500    91105566.019 6      1654.432
R03  19889019.220   106467475.559 8      1673.096    19889019.680   106467475.579 7      1673.096    19889030.120    82808081.066 8      1301.297    19889029.780    82808080.067 8      1301.297
G01  21267543.240   111761689.360 7      2038.047    21267542.300   111761689.370 6      2038.047    21267547.580    87087049.201 6      1588.089    21267547.840    87087050.209 8      1588.089
R04  20077024.900   107511556.641 7      5632.241    20077026.220   107511556.683 7      5632.241    20077038.740    83620159.318 8      4380.632    20077038.300    83620159.314 8      4380.632
R18  20448336.840   109154603.998 7      3029.796    20448336.640   109154603.996 7      3029.796    20448346.840    84898070.384 8      2356.508    20448346.800    84898072.392 8      2356.508
G17  22458531.500   118020383.522 7      5365.575    22458530.420   118020383.522 6      5365.575    22458536.140    91963952.163 6      4180.967    22458536.340    91963954.167 7      4180.967
G08  22781809.540   119719208.172 7      -192.907    22781808.520   119719208.187 7      -192.907    22781822.780    93287744.601 7      -150.317    22781823.280    93287749.614 7      -150.317
R17  22403670.320   119886562.036 7      1061.162    22403671.600   119886562.072 7      1061.162    22403688.340    93245177.118 7       825.348    22403687.880    93245175.108 7       825.348
R02  23651798.960   126210540.091 6     -1136.868    23651798.700   126210540.089 6     -1136.868    23651811.260    98163800.487 6      -884.231    23651811.860    98163802.480 6      -884.231
G04  22436705.020   117905683.589 7      5620.328    22436705.060   117905683.597 5      5620.328    22436716.640    91874606.616 5      4379.476    22436716.840    91874614.634 8      4379.476
R16  23407709.620   125039774.863 6      -417.179    23407706.500   125039774.869 6      -417.179    23407732.700    97253241.300 6      -324.472    23407732.760    97253242.308 6      -324.472
G09  24229977.600   127329401.018 6      6259.416    24229975.740   127329401.021 6      6259.416    24230004.380    99217793.565 6      4877.467    24230005.400    99217833.588 7      4877.467
> 2025 04 04 17 45 30.0000000  0 14
G02  22813750.920   119887065.001 7      1512.431    22813749.440   119887065.006 6      1512.431    22813755.420    93418511.081 6      1178.518
G03  20038862.360   105304929.325 8      1867.985    20038861.720   105304929.330 8      1867.985    20038867.880    82055812.630 8      1455.573    20038868.780    82055817.632 8      1455.573
G14  22248497.460   116916623.805 6      2122.871    22248496.520   116916623.820 2      2122.871    22248504.360    91103882.557 2      1654.185    22248505.280    91103911.575 6      1654.185
R03  19888706.720   106465802.749 7      1672.425    19888707.260   106465802.766 7      1672.425    19888717.640    82806779.993 8      1300.775    19888717.380    82806778.994 8      1300.775
G01  21267155.180   111759651.103 7      2038.255    21267154.440   111759651.110 6      2038.255    21267159.660    87085460.953 6      1588.251    21267160.120    87085461.956 8      1588.251
R04  20075973.120   107505924.653 7      5631.728    20075974.180   107505924.692 7      5631.728    20075986.900    83615778.890 8      4380.233    20075986.680    83615778.892 8      4380.233
R18  20447769.280   109151574.161 7      3029.759    20447769.340   109151574.157 7      3029.759    20447779.520    84895713.849 8      2356.479    20447779.160    84895715.855 8      2356.479
G17  22457510.420   118015017.887 7      5365.601    22457509.460   118015017.884 6      5365.601    22457515.080    91959771.154 6      4180.988    22457515.420    91959773.159 7      4180.988
G08  22781846.100   119719401.102 7      -193.021    22781845.120   119719401.115 7      -193.021    22781859.520    93287894.931 7      -150.406    22781859.440    93287899.943 7      -150.406
R17  22403472.080   119885500.804 7      1061.211    22403473.120   119885500.835 7      1061.211    22403490.200    93244351.707 7       825.386    22403489.620    93244349.699 7       825.386
R02  23652012.360   126211676.860 6     -1136.866    23652011.400   126211676.848 6     -1136.866    23652024.280    98164684.639 6      -884.229    23652025.000    98164686.634 6      -884.229
G04  22435635.400   117900063.216 7      5620.315    22435635.460   117900063.223 5      5620.315    22435647.200    91870227.121 5      4379.466    22435647.360    91870235.122 8      4379.466
R16  23407787.760   125040191.990 6      -416.969    23407785.020   125040192.007 6      -416.969    23407810.600    97253565.718 6      -324.309    23407810.840    97253566.717 7      -324.309
G09  24228786.000   127323141.417 6      6259.711    24228784.800   127323141.419 6      6259.711    24228813.500    99212915.986 6      4877.697    24228814.160    99212956.018 7      4877.697
> 2025 04 04 17 45 31.0000000  0 14
G02  22813463.120   119885552.499 7      1512.613    22813461.660   119885552.507 6      1512.613    22813467.560    93417332.511 6      1178.659
G03  20038506.920   105303061.572 8      1867.625    20038506.320   105303061.577 8      1867.625    20038512.540    82054357.240 8      1455.292    20038513.440    82054362.242 8      1455.292
G14  22248093.000   116914501.007 6      2122.682    22248092.640   116914501.017 2      2122.682    22248100.260    91102228.431 2      1654.038    22248100.780    91102257.426 6      1654.038
R03  19888394.740   106464130.664 7      1671.671    19888395.120   106464130.684 7      1671.671    19888405.300    82805479.489 8      1300.188    19888405.180    82805478.490 8      1300.188
G01  21266767.360   111757612.861 7      2038.221    21266766.640   111757612.869 6      2038.221    21266771.820    87083872.715 6      1588.224    21266771.940    87083873.716 8      1588.224
R04  20074921.560   107500293.206 7      5631.236    20074922.700   107500293.243 7      5631.236    20074935.480    83611398.886 8      4379.851    20074935.020    83611398.886 8      4379.851
R18  20447201.880   109148544.423 7      3029.690    20447201.840   109148544.424 7      3029.690    20447211.720    84893357.388 8      2356.426    20447211.880    84893359.396 8      2356.426
G17  22456489.320   118009652.317 7      5365.535    22456488.460   118009652.314 6      5365.535    22456494.120    91955590.197 6      4180.936    22456494.420    91955592.203 7      4180.936
G08  22781882.800   119719594.183 7      -193.113    22781881.920   119719594.193 7      -193.113    22781896.120    93288045.373 7      -150.478    22781896.420    93288050.377 7      -150.478
R17  22403273.720   119884439.746 7      1060.927    22403274.460   119884439.777 7      1060.927    22403291.660    93243526.436 7       825.165    22403291.460    93243524.428 7       825.165
R02  23652225.660   126212813.781 6     -1137.104    23652224.620   126212813.777 6     -1137.104    23652237.580    98165568.917 6      -884.414    23652238.120    98165570.918 6      -884.414
G04  22434566.120   117894442.950 7      5620.204    22434565.820   117894442.952 5      5620.204    22434577.780    91865847.699 5      4379.380    22434578.040    91865855.705 8      4379.380
R16  23407866.000   125040609.095 6      -417.119    23407863.480   125040609.115 6      -417.119    23407888.920    97253890.102 6      -324.426    23407889.240    97253891.102 7      -324.426
G09  24227595.160   127316881.703 6      6259.640    24227593.660   127316881.703 6      6259.640    24227622.400    99208038.307 6      4877.642    24227622.540    99208078.337 7      4877.642
> 2025 04 04 17 45 32.0000000  0 14
G02  22813175.460   119884040.047 7      1512.536    22813173.800   119884040.052 6      1512.536    22813179.800    93416153.977 6      1178.600
G03  20038151.620   105301194.253 8      1867.264    20038151.000   105301194.255 8      1867.264    20038157.160    82052902.184 8      1455.011    20038158.180    82052907.184 8      1455.011
G14  22247688.880   116912378.742 6      2122.156    22247688.880   116912378.750 2      2122.156    22247696.520    91100574.718 2      1653.628    22247696.960    91100603.728 6      1653.628
R03  19888082.580   106462459.371 7      1671.025    19888082.900   106462459.394 7      1671.025    19888092.960    82804179.603 8      1299.686    19888093.060    82804178.604 8      1299.686
G01  21266379.700   111755574.672 7      2038.316    21266378.940   111755574.677 6      2038.316    21266384.000    87082284.515 6      1588.298    21266384.020    87082285.517 8      1588.298
R04  20073870.360   107494662.418 7      5630.513    20073871.280   107494662.457 7      5630.513    20073883.960    83607019.394 8      4379.288    20073883.600    83607019.394 8      4379.288
R18  20446634.280   109145514.896 7      3029.598    20446634.220   109145514.894 7      3029.598    20446644.240    84891001.091 8      2356.354    20446644.300    84891003.098 8      2356.354
G17  22455468.260   118004286.878 7      5365.523    22455467.680   118004286.873 6      5365.523    22455473.140    91951409.342 6      4180.927    22455473.540    91951411.352 7      4180.927
G08  22781919.780   119719787.487 7      -193.321    22781918.660   119719787.497 7      -193.321    22781933.020    93288196.003 7      -150.639    22781933.400    93288201.014 7      -150.639
R17  22403075.120   119883378.886 7      1060.942    22403075.960   119883378.923 7      1060.942    22403093.080    93242701.331 7       825.177    22403093.060    93242699.319 7       825.177
R02  23652438.200   126213950.990 6     -1137.219    23652437.380   126213950.975 6     -1137.219    23652450.900    98166453.407 6      -884.504    23652451.500    98166455.410 6      -884.504
G04  22433496.580   117888822.855 7      5620.125    22433496.320   117888822.860 5      5620.125    22433508.300    91861468.419 5      4379.318    22433508.560    91861476.422 8      4379.318
R16  23407944.660   125041026.166 6      -416.994    23407940.440   125041026.183 6      -416.994    23407966.540    97254214.473 7      -324.328    23407967.200    97254215.471 7      -324.328
G09  24226403.900   127310621.805 6      6260.048    24226402.480   127310621.810 6      6260.048    24226430.840    99203160.496 6      4877.959    24226431.520    99203200.531 7      4877.959
> 2025 04 04 17 45 33.0000000  0 14
G02  22812887.540   119882527.543 7      1512.428    22812885.960   119882527.548 5      1512.428    22812891.780    93414975.400 6      1178.516
G03  20037796.220   105299327.305 8      1866.713    20037795.760   105299327.315 8      1866.713    20037801.840    82051447.431 8      1454.581    20037802.760    82051452.433 8      1454.581
G14  22247285.400   116910256.917 6      2121.614    22247285.080   116910256.924 2      2121.614    22247292.620    91098921.345 2      1653.206    22247292.860    91098950.349 6      1653.206
R03  19887770.100   106460788.833 8      1670.082    19887770.760   106460788.862 7      1670.082    19887780.920    82802880.300 8      1298.953    19887780.740    82802879.303 8      1298.953
G01  21265991.840   111753536.485 7      2038.121    21265990.940   111753536.495 6      2038.121    21265995.980    87080696.326 6      1588.146    21265996.280    87080697.328 8      1588.146
R04  20072818.900   107489032.162 8      5629.896    20072819.760   107489032.201 7      5629.896    20072832.580    83602640.317 8      4378.808    20072832.400    83602640.321 8      4378.808
R18  20446066.940   109142485.479 7      3029.291    20446066.900   109142485.474 7      3029.291    20446076.800    84888644.882 8      2356.115    20446077.100    84888646.888 8      2356.115
G17  22454447.500   117998921.521 7      5365.188    22454446.600   117998921.518 6      5365.188    22454452.080    91947228.550 6      4180.666    22454452.540    91947230.553 7      4180.666
G08  22781956.680   119719980.959 7      -193.645    22781955.600   119719980.972 7      -193.645    22781969.940    93288346.755 7      -150.892    22781970.620    93288351.763 7      -150.892
R17  22402876.840   119882318.206 7      1060.478    22402877.880   119882318.242 7      1060.478    22402894.760    93241876.349 7       824.816    22402894.700    93241874.341 7       824.816
R02  23652651.280   126215088.426 6     -1137.643    23652650.980   126215088.416 6     -1137.643    23652664.400    98167338.089 6      -884.833    23652664.540    98167340.078 6      -884.833
G04  22432427.200   117883202.860 7      5619.908    22432426.840   117883202.865 5      5619.908    22432438.840    91857089.214 5      4379.149    22432439.040    91857097.228 8      4379.149
R16  23408022.680   125041443.247 6      -417.205    23408019.380   125041443.256 6      -417.205    23408044.420    97254538.843 7      -324.493    23408045.300    97254539.832 7      -324.493
G09  24225212.340   127304361.783 6      6259.994    24225211.140   127304361.783 6      6259.994    24225239.480    99198282.583 6      4877.917    24225240.020    99198322.606 7      4877.917
> 2025 04 04 17 45 34.0000000  0 14
G02  22812599.780   119881015.191 7      1512.327    22812598.140   119881015.193 6      1512.327    22812603.860    93413796.940 6      1178.437
G03  20037441.300   105297460.942 8      1866.068    20037440.620   105297460.950 8      1866.068    20037446.660    82049993.127 8      1454.079    20037447.860    82049998.129 8      1454.079
G14  22246881.580   116908135.722 6      2120.926    22246881.420   116908135.727 2      2120.926    22246888.820    91097268.472 2      1652.669    22246889.380    91097297.472 6      1652.669
R03  19887458.340   106459119.232 8      1669.221    19887458.680   106459119.255 8      1669.221    19887468.940    82801581.726 8      1298.283    19887468.980    82801580.725 8      1298.283
G01  21265604.120   111751498.493 8      2037.985    21265603.320   111751498.501 6      2037.985    21265608.100    87079108.280 6      1588.041    21265608.500    87079109.282 8      1588.041
R04  20071767.400   107483402.654 8      5629.230    20071768.520   107483402.690 8      5629.230    20071781.400    83598261.819 8      4378.290    20071780.920    83598261.821 8      4378.290
R18  20445499.200   109139456.338 8      3029.028    20445499.400   109139456.337 8      3029.028    20445509.320    84886288.890 8      2355.911    20445509.220    84886290.896 8      2355.911
G17  22453426.360   117993556.419 7      5364.979    22453425.500   117993556.416 6      5364.979    22453431.220    91943047.953 6      4180.503    22453431.500    91943049.962 7      4180.503
G08  22781993.520   119720174.804 7      -193.953    22781992.620   119720174.806 7      -193.953    22782006.820    93288497.782 7      -151.132    22782007.520    93288502.791 7      -151.132
R17  22402678.860   119881257.828 7      1060.292    22402679.080   119881257.861 7      1060.292    22402696.700    93241051.600 7       824.672    22402696.520    93241049.592 7       824.672
R02  23652864.520   126216226.276 7     -1137.968    23652864.300   126216226.276 6     -1137.968    23652877.660    98168223.108 7      -885.086    23652877.940    98168225.106 7      -885.086
G04  22431358.140   117877583.196 7      5619.571    22431357.420   117877583.204 5      5619.571    22431369.400    91852710.269 5      4378.887    22431369.560    91852718.281 8      4378.887
R16  23408100.880   125041860.457 6      -417.215    23408097.460   125041860.474 6      -417.215    23408122.820    97254863.323 7      -324.500    23408123.180    97254864.320 7      -324.500
G09  24224020.860   127298101.741 6      6260.008    24224019.260   127298101.732 6      6260.008    24224048.100    99193404.650 6      4877.928    24224048.560    99193444.684 7      4877.928
> 2025 04 04 17 45 35.0000000  0 14
G02  22812311.960   119879502.858 7      1512.297    22812310.320   119879502.860 6      1512.297    22812316.160    93412618.500 6      1178.413
G03  20037086.200   105295595.013 8      1865.720    20037085.520   105295595.023 8      1865.720    20037091.620    82048539.162 8      1453.808    20037092.620    82048544.164 8      1453.808
G14  22246477.860   116906015.060 6      2120.227    22246477.840   116906015.068 2      2120.227    22246485.240    91095616.011 2      1652.125    22246485.520    91095645.015 6      1652.125
R03  19887146.560   106457450.477 8      1668.341    19887147.020   106457450.500 8      1668.341    19887157.280    82800283.805 8      1297.598    19887157.120    82800282.806 8      1297.598
G01  21265216.340   111749460.585 8      2037.852    21265215.500   111749460.595 6      2037.852    21265220.440    87077520.306 6      1587.936    21265220.800    87077521.308 8      1587.936
R04  20070716.340   107477773.761 8      5628.641    20070717.140   107477773.795 8      5628.641    20070730.160    83593883.799 8      4377.832    20070729.880    83593883.802 8      4377.832
R18  20444931.640   109136427.372 8      3028.915    20444932.060   109136427.370 8      3028.915    20444941.960    84883933.027 8      2355.822    20444941.820    84883935.036 8      2355.822
G17  22452405.600   117988191.464 7      5364.831    22452404.680   117988191.464 6      5364.831    22452410.260    91938867.477 6      4180.388    22452410.760    91938869.487 7      4180.388
G08  22782030.400   119720368.878 7      -194.201    22782029.560   119720368.888 7      -194.201    22782043.740    93288649.007 7      -151.326    22782044.100    93288654.017 7      -151.326
R17  22402481.000   119880197.736 7      1059.931    22402481.000   119880197.767 7      1059.931    22402498.240    93240227.080 7       824.391    22402498.220    93240225.070 7       824.391
R02  23653077.940   126217364.480 7     -1138.323    23653077.040   126217364.470 6     -1138.323    23653091.040    98169108.360 6      -885.362    23653091.360    98169110.359 7      -885.362
G04  22430288.940   117871963.714 7      5619.358    22430287.960   117871963.721 5      5619.358    22430300.000    91848331.468 5      4378.721    22430300.380    91848339.480 8      4378.721
R16  23408179.100   125042277.717 6      -417.140    23408175.300   125042277.729 6      -417.140    23408201.140    97255187.827 7      -324.442    23408201.360    97255188.827 7      -324.442
G09  24222829.700   127291841.609 6      6260.242    24222827.880   127291841.606 6      6260.242    24222856.920    99188526.662 6      4878.110    24222856.960    99188566.694 7      4878.110
> 2025 04 04 17 45 36.0000000  0 14
G02  22812024.140   119877990.697 7      1511.987    22812022.720   119877990.700 6      1511.987    22812028.600    93411440.198 6      1178.172
G03  20036731.200   105293729.688 8      1864.903    20036730.580   105293729.693 8      1864.903    20036736.640    82047085.665 8      1453.171    20036737.840    82047090.665 8      1453.171
G14  22246074.260   116903895.018 6      2119.511    22246074.400   116903895.026 2      2119.511    22246081.860    91093964.032 2      1651.567    22246081.500    91093993.020 6      1651.567
R03  19886834.560   106455782.680 8      1667.129    19886835.400   106455782.706 8      1667.129    19886845.900    82798986.640 8      1296.656    19886845.460    82798985.639 8      1296.656
G01  21264828.580   111747422.885 7      2037.457    21264827.680   111747422.892 6      2037.457    21264832.660    87075932.490 6      1587.629    21264832.920    87075933.493 8      1587.629
R04  20069665.300   107472145.680 8      5627.458    20069666.120   107472145.714 7      5627.458    20069679.260    83589506.413 8      4376.911    20069678.780    83589506.417 8      4376.911
R18  20444364.320   109133398.752 8      3028.297    20444364.600   109133398.756 8      3028.297    20444374.560    84881577.441 8      2355.342    20444374.460    84881579.451 8      2355.342
G17  22451384.840   117982826.811 7      5364.347    22451383.920   117982826.811 6      5364.347    22451389.380    91934687.234 6      4180.011    22451389.660    91934689.243 7      4180.011
G08  22782067.480   119720563.322 7      -194.795    22782066.360   119720563.340 7      -194.795    22782080.660    93288800.524 7      -151.788    22782081.160    93288805.532 7      -151.788
R17  22402283.320   119879138.032 7      1059.423    22402283.080   119879138.063 7      1059.423    22402300.360    93239402.861 7       823.995    22402300.160    93239400.856 7       823.995
R02  23653291.280   126218502.999 7     -1138.971    23653291.100   126218502.979 6     -1138.971    23653304.240    98169993.856 7      -885.866    23653304.720    98169995.859 7      -885.866
G04  22429219.440   117866344.559 7      5618.829    22429218.600   117866344.562 5      5618.829    22429230.620    91843952.917 5      4378.308    22429230.720    91843960.928 8      4378.308
R16  23408257.300   125042695.161 6      -417.578    23408253.680   125042695.168 6      -417.578    23408279.140    97255512.477 7      -324.783    23408279.420    97255513.481 6      -324.783
G09  24221638.740   127285581.545 6      6259.974    24221637.000   127285581.532 6      6259.974    24221666.000    99183648.717 6      4877.902    24221665.760    99183688.747 7      4877.902
> 2025 04 04 17 45 37.0000000  0 14
G02  22811736.540   119876478.666 7      1512.109    22811734.900   119876478.671 6      1512.109    22811740.960    93410261.992 6      1178.267
G03  20036376.300   105291864.913 8      1864.610    20036375.780   105291864.915 8      1864.610    20036381.800    82045632.595 8      1452.943    20036382.740    82045637.595 8      1452.943
G14  22245671.180   116901775.584 6      2119.260    22245671.240   116901775.594 2      2119.260    22245678.500    91092312.529 2      1651.371    22245678.540    91092341.545 6      1651.371
R03  19886523.220   106454115.817 7      1666.524    19886523.860   106454115.837 7      1666.524    19886534.280    82797690.193 8      1296.186    19886533.980    82797689.196 8      1296.186
G01  21264441.000   111745385.366 7      2037.517    21264439.980   111745385.373 6      2037.517    21264445.180    87074344.815 6      1587.675    21264445.380    87074345.818 8      1587.675
R04  20068614.580   107466518.348 8      5627.099    20068615.460   107466518.371 7      5627.099    20068628.320    83585129.602 8      4376.633    20068627.920    83585129.606 8      4376.633
R18  20443797.040   109130370.442 7      3028.279    20443797.520   109130370.443 7      3028.279    20443807.260    84879222.093 8      2355.328    20443807.080    84879224.101 8      2355.328
G17  22450364.180   117977462.384 7      5364.479    22450362.940   117977462.384 6      5364.479    22450368.560    91930507.167 6      4180.113    22450368.700    91930509.176 7      4180.113
G08  22782104.520   119720758.121 7      -194.780    22782103.580   119720758.128 7      -194.780    22782117.640    93288952.297 7      -151.777    22782118.300    93288957.307 7      -151.777
R17  22402085.760   119878078.681 7      1059.321    22402084.740   119878078.702 7      1059.321    22402102.100    93238578.916 7       823.916    22402101.860    93238576.912 7       823.916
R02  23653504.840   126219641.732 7     -1138.844    23653504.660   126219641.725 6     -1138.844    23653517.820    98170879.551 7      -885.768    23653518.180    98170881.557 6      -885.768
G04  22428150.160   117860725.676 7      5618.938    22428149.320   117860725.681 5      5618.938    22428161.500    91839574.584 5      4378.393    22428161.700    91839582.598 8      4378.393
R16  23408335.380   125043112.734 6      -417.575    23408332.080   125043112.751 6      -417.575    23408358.040    97255837.244 7      -324.781    23408357.780    97255838.250 7      -324.781
G09  24220447.300   127279321.458 6      6260.327    24220446.420   127279321.447 6      6260.327    24220474.720    99178770.762 6      4878.177    24220474.620    99178810.791 7      4878.177
> 2025 04 04 17 45 38.0000000  0 14
G02  22811448.960   119874966.648 7      1511.942    22811447.200   119874966.658 6      1511.942    22811453.160    93409083.800 6      1178.137
G03  20036021.520   105290000.557 8      1864.052    20036020.960   105290000.565 8      1864.052    20036027.080    82044179.857 8      1452.508    20036028.080    82044184.859 8      1452.508
G14  22245268.680   116899656.667 6      2118.698    22245267.900   116899656.672 2      2118.698    22245275.380    91090661.421 2      1650.933    22245276.260    91090690.433 6      1650.933
R03  19886212.260   106452449.752 7      1665.540    19886212.300   106452449.777 7      1665.540    19886223.040    82796394.367 8      1295.420    19886222.820    82796393.370 8      1295.420
G01  21264053.020   111743347.886 7      2037.324    21264052.200   111743347.896 6      2037.324    21264057.140    87072757.172 6      1587.525    21264057.820    87072758.178 8      1587.525
R04  20067563.760   107460891.672 7      5626.169    20067564.500   107460891.701 7      5626.169    20067577.400    83580753.313 8      4375.909    20067577.020    83580753.319 8      4375.909
R18  20443229.880   109127342.279 7      3028.048    20443230.220   109127342.288 7      3028.048    20443239.960    84876866.857 8      2355.149    20443240.020    84876868.869 8      2355.149
G17  22449343.120   117972098.102 7      5364.130    22449342.100   117972098.101 6      5364.130    22449347.760    91926327.211 6      4179.841    22449348.120    91926329.218 7      4179.841
G08  22782141.640   119720953.130 7      -195.266    22782140.740   119720953.148 7      -195.266    22782154.720    93289104.252 7      -152.155    22782155.720    93289109.260 7      -152.155
R17  22401887.900   119877019.545 7      1058.975    22401886.620   119877019.565 7      1058.975    22401904.500    93237755.141 7       823.647    22401904.220    93237753.137 7       823.647
R02  23653718.200   126220780.691 7     -1139.257    23653717.620   126220780.671 6     -1139.257    23653731.020    98171765.407 7      -886.089    23653731.680    98171767.412 7      -886.089
G04  22427080.560   117855106.984 7      5618.498    22427080.200   117855106.989 5      5618.498    22427092.520    91835196.397 5      4378.050    22427092.220    91835204.407 8      4378.050
R16  23408413.900   125043530.334 6      -417.742    23408410.760   125043530.343 6      -417.742    23408435.880    97256162.006 7      -324.911    23408436.300    97256163.006 7      -324.911
G09  24219255.840   127273061.294 6      6260.114    24219255.420   127273061.286 6      6260.114    24219283.340    99173892.735 6      4878.011    24219283.440    99173932.756 7      4878.011
> 2025 04 04 17 45 39.0000000  0 14
G02  22811161.100   119873454.640 7      1512.027    22811159.560   119873454.645 6      1512.027    22811165.620    93407905.612 6      1178.203
G03  20035666.780   105288136.641 8      1863.678    20035666.340   105288136.646 8      1863.678    20035672.320    82042727.462 8      1452.216    20035673.120    82042732.462 8      1452.216
G14  22244865.360   116897538.231 6      2118.227    22244864.840   116897538.236 2      2118.227    22244872.340    91089010.701 2      1650.566    22244872.540    91089039.724 6      1650.566
R03  19885901.240   106450784.476 8      1664.905    19885901.040   106450784.502 7      1664.905    19885912.080    82795099.158 8      1294.926    19885911.880    82795098.159 8      1294.926
G01  21263665.260   111741310.472 7      2037.423    21263664.620   111741310.485 6      2037.423    21263669.500    87071169.581 6      1587.602    21263669.900    87071170.586 8      1587.602
R04  20066513.060   107455265.586 8      5625.814    20066513.840   107455265.622 7      5625.814    20066526.640    83576377.491 8      4375.633    20066526.520    83576377.495 8      4375.633
R18  20442662.380   109124314.287 8      3027.980    20442663.100   109124314.296 7      3027.980    20442672.600    84874511.758 8      2355.096    20442672.620    84874513.768 8      2355.096
G17  22448322.340   117966733.953 7      5364.058    22448321.320   117966733.953 6      5364.058    22448326.940    91922147.361 6      4179.785    22448327.200    91922149.372 7      4179.785
G08  22782178.960   119721148.339 7      -195.115    22782177.780   119721148.351 7      -195.115    22782191.940    93289256.356 7      -152.038    22782192.480    93289261.365 7      -152.038
R17  22401689.820   119875960.606 7      1058.824    22401688.740   119875960.629 7      1058.824    22401706.520    93236931.513 7       823.530    22401706.360    93236929.508 7       823.530
R02  23653931.760   126221919.872 7     -1139.234    23653931.180   126221919.862 6     -1139.234    23653944.020    98172651.444 6      -886.071    23653944.740    98172653.454 6      -886.071
G04  22426011.560   117849488.450 7      5618.496    22426011.140   117849488.455 5      5618.496    22426023.280    91830818.331 5      4378.049    22426023.080    91830826.345 8      4378.049
R16  23408492.020   125043947.920 6      -417.552    23408488.940   125043947.948 6      -417.552    23408514.020    97256486.785 7      -324.762    23408514.300    97256487.787 7      -324.762
G09  24218064.620   127266801.002 6      6260.261    24218064.020   127266800.997 6      6260.261    24218091.660    99169014.612 6      4878.125    24218092.100    99169054.627 7      4878.125
> 2025 04 04 17 45 40.0000000  0 14
G02  22810873.360   119871942.848 7      1511.677    22810871.980   119871942.853 6      1511.677    22810877.800    93406727.590 6      1177.930
G03  20035312.220   105286273.342 8      1863.065    20035311.760   105286273.347 8      1863.065    20035317.760    82041275.541 8      1451.739    20035318.600    82041280.543 8      1451.739
G14  22244462.880   116895420.520 6      2117.350    22244461.760   116895420.525 2      2117.350    22244469.420    91087360.537 2      1649.883    22244471.000    91087389.543 6      1649.883
R03  19885589.980   106449120.182 7      1663.882    19885590.420   106449120.208 7      1663.882    19885601.180    82793804.714 8      1294.131    19885600.800    82793803.713 8      1294.131
G01  21263277.640   111739273.307 7      2037.103    21263276.880   111739273.312 6      2037.103    21263281.880    87069582.182 6      1587.353    21263282.220    87069583.190 8      1587.353
R04  20065462.480   107449640.316 8      5624.905    20065463.200   107449640.358 7      5624.905    20065476.100    83572002.293 8      4374.926    20065475.960    83572002.300 8      4374.926
R18  20442095.360   109121286.650 7      3027.541    20442095.880   109121286.653 7      3027.541    20442105.520    84872156.925 8      2354.754    20442105.640    84872158.933 8      2354.754
G17  22447301.560   117961370.104 7      5363.778    22447300.660   117961370.101 6      5363.778    22447306.200    91917967.745 6      4179.567    22447306.600    91917969.756 7      4179.567
G08  22782216.160   119721344.018 7      -195.886    22782215.300   119721344.031 7      -195.886    22782229.120    93289408.825 7      -152.638    22782229.660    93289413.834 7      -152.638
R17  22401491.880   119874902.061 7      1058.286    22401491.060   119874902.076 7      1058.286    22401508.740    93236108.194 7       823.111    22401508.240    93236106.195 7       823.111
R02  23654144.900   126223059.541 6     -1139.788    23654145.160   126223059.531 6     -1139.788    23654158.200    98173537.862 6      -886.502    23654158.580    98173539.868 6      -886.502
G04  22424942.540   117843870.289 7      5617.980    22424942.000   117843870.296 5      5617.980    22424953.980    91826440.555 5      4377.647    22424953.920    91826448.569 8      4377.647
R16  23408570.160   125044365.762 6      -417.993    23408567.340   125044365.793 6      -417.993    23408592.080    97256811.746 7      -325.106    23408592.700    97256812.752 7      -325.106
G09  24216873.760   127260540.773 6      6260.167    24216872.620   127260540.770 6      6260.167    24216900.440    99164136.540 6      4878.052    24216900.880    99164176.555 7      4878.052
> 2025 04 04 17 45 41.0000000  0 14
G02  22810585.700   119870430.953 7      1511.894    22810584.200   119870430.958 6      1511.894    22810590.160    93405549.492 6      1178.100
G03  20034957.760   105284410.377 8      1862.795    20034957.260   105284410.387 8      1862.795    20034963.200    82039823.888 8      1451.528    20034963.960    82039828.892 8      1451.528
G14  22244059.780   116893303.182 6      2117.104    22244058.840   116893303.192 2      2117.104    22244066.540    91085710.665 2      1649.691    22244067.340    91085739.673 6      1649.691
R03  19885279.360   106447456.593 7      1663.161    19885279.500   106447456.621 7      1663.161    19885290.340    82792510.817 8      1293.570    19885290.180    82792509.820 8      1293.570
G01  21262890.100   111737236.101 8      2037.188    21262889.320   111737236.109 6      2037.188    21262894.120    87067994.755 6      1587.419    21262894.720    87067995.756 8      1587.419
R04  20064412.100   107444015.549 8      5624.476    20064413.240   107444015.586 7      5624.476    20064425.780    83567627.479 8      4374.593    20064425.420    83567627.483 8      4374.593
R18  20441528.020   109118259.066 8      3027.503    20441528.720   109118259.075 7      3027.503    20441538.220    84869802.145 8      2354.725    20441538.280    84869804.156 8      2354.725
G17  22446281.040   117956006.313 7      5363.723    22446279.980   117956006.316 6      5363.723    22446285.520    91913788.173 5      4179.524    22446285.800    91913790.176 7      4179.524
G08  22782253.220   119721539.776 7      -195.883    22782252.360   119721539.788 7      -195.883    22782266.160    93289561.364 7      -152.636    22782266.960    93289566.372 7      -152.636
R17  22401294.100   119873843.593 7      1058.364    22401293.160   119873843.611 7      1058.364    22401311.040    93235284.946 7       823.172    22401310.760    93235282.946 7       823.172
R02  23654359.080   126224199.394 7     -1139.947    23654358.580   126224199.392 6     -1139.947    23654371.620    98174424.425 6      -886.626    23654372.120    98174426.428 6      -886.626
G04  22423873.380   117838252.185 7      5618.031    22423872.840   117838252.196 5      5618.031    22423884.840    91822062.831 5      4377.687    22423885.080    91822070.832 8      4377.687
R16  23408648.500   125044783.525 6      -417.945    23408646.160   125044783.550 6      -417.945    23408669.840    97257136.650 7      -325.068    23408670.680    97257137.646 7      -325.068
G09  24215682.400   127254280.336 6      6260.386    24215681.220   127254280.339 6      6260.386    24215709.480    99159258.310 6      4878.223    24215709.740    99159298.331 7      4878.223
> 2025 04 04 17 45 42.0000000  0 14
G02  22810297.860   119868919.145 7      1511.631    22810296.500   119868919.155 6      1511.631    22810302.540    93404371.464 6      1177.894
G03  20034603.380   105282547.932 8      1861.969    20034602.900   105282547.942 8      1861.969    20034608.840    82038372.634 8      1450.885    20034609.540    82038377.636 8      1450.885
G14  22243656.760   116891186.396 6      2116.484    22243656.120   116891186.403 2      2116.484    22243663.740    91084061.220 2      1649.209    22243664.440    91084090.217 6      1649.209
R03  19884968.560   106445793.844 7      1662.215    19884968.760   106445793.870 7      1662.215    19884979.580    82791217.570 8      1292.834    19884979.500    82791216.571 8      1292.834
G01  21262502.280   111735199.031 7      2036.830    21262501.680   111735199.039 6      2036.830    21262506.620    87066407.426 6      1587.140    21262507.040    87066408.427 8      1587.140
R04  20063361.840   107438391.476 8      5623.544    20063362.700   107438391.512 7      5623.544    20063375.400    83563253.208 8      4373.868    20063375.040    83563253.212 8      4373.868
R18  20440961.160   109115231.743 7      3027.033    20440961.380   109115231.741 7      3027.033    20440970.980    84867447.557 8      2354.359    20440971.140    84867449.565 8      2354.359
G17  22445260.000   117950642.704 7      5363.409    22445259.340   117950642.703 6      5363.409    22445265.000    91909608.739 6      4179.280    22445265.500    91909610.740 7      4179.280
G08  22782290.520   119721735.820 7      -196.237    22782289.620   119721735.833 7      -196.237    22782303.560    93289714.120 7      -152.912    22782304.460    93289719.130 7      -152.912
R17  22401096.000   119872785.462 7      1057.817    22401095.660   119872785.483 7      1057.817    22401113.200    93234461.957 7       822.746    22401113.320    93234459.953 7       822.746
R02  23654572.600   126225339.581 7     -1140.490    23654572.400   126225339.574 6     -1140.490    23654585.400    98175311.235 6      -887.048    23654585.860    98175313.242 7      -887.048
G04  22422804.300   117832634.319 7      5617.743    22422803.860   117832634.324 5      5617.743    22422815.900    91817685.278 5      4377.462    22422816.020    91817693.288 8      4377.462
R16  23408726.460   125045201.311 6      -417.884    23408724.100   125045201.339 6      -417.884    23408747.820    97257461.572 6      -325.021    23408749.080    97257462.574 6      -325.021
G09  24214490.880   127248019.855 6      6260.373    24214490.000   127248019.854 6      6260.373    24214518.500    99154380.038 6      4878.213    24214519.240    99154420.057 7      4878.213
> 2025 04 04 17 45 43.0000000  0 14
G02  22810010.200   119867407.287 7      1511.861    22810008.880   119867407.297 6      1511.861    22810015.000    93403193.395 6      1178.074
G03  20034248.980   105280685.815 8      1861.952    20034248.640   105280685.823 8      1861.952    20034254.500    82036921.636 8      1450.872    20034255.020    82036926.636 8      1450.872
G14  22243254.020   116889070.059 6      2116.168    22243253.340   116889070.069 2      2116.168    22243260.900    91082412.126 2      1648.962    22243260.880    91082441.136 6      1648.962
R03  19884658.320   106444131.842 7      1661.563    19884658.300   106444131.865 7      1661.563    19884669.180    82789924.902 8      1292.327    19884669.100    82789923.903 8      1292.327
G01  21262114.740   111733161.935 7      2037.057    21262113.960   111733161.940 6      2037.057    21262119.060    87064820.080 6      1587.317    21262119.460    87064821.083 8      1587.317
R04  20062311.880   107432767.957 8      5623.237    20062312.520   107432767.993 7      5623.237    20062325.280    83558879.368 8      4373.629    20062325.080    83558879.375 8      4373.629
R18  20440394.080   109112204.512 7      3027.208    20440394.440   109112204.507 7      3027.208    20440404.100    84865093.041 8      2354.495    20440404.140    84865095.048 8      2354.495
G17  22444239.460   117945279.152 7      5363.566    22444238.580   117945279.154 6      5363.566    22444244.360    91905429.350 6      4179.402    22444244.880    91905431.357 7      4179.402
G08  22782327.780   119721932.059 7      -196.469    22782326.960   119721932.072 7      -196.469    22782340.900    93289867.025 7      -153.093    22782341.900    93289872.033 7      -153.093
R17  22400898.560   119871727.492 7      1057.888    22400898.240   119871727.502 7      1057.888    22400915.500    93233639.071 7       822.802    22400915.640    93233637.071 7       822.802
R02  23654786.460   126226479.904 7     -1140.432    23654785.920   126226479.907 6     -1140.432    23654798.880    98176198.159 6      -887.003    23654799.360    98176200.162 6      -887.003
G04  22421735.360   117827016.578 7      5617.661    22421734.740   117827016.585 5      5617.661    22421746.920    91813307.833 5      4377.399    22421747.300    91813315.842 8      4377.399
R16  23408804.660   125045619.143 6      -417.972    23408801.600   125045619.165 6      -417.972    23408826.520    97257786.527 6      -325.090    23408827.060    97257787.529 6      -325.090
G09  24213299.660   127241759.195 6      6260.668    24213298.720   127241759.200 6      6260.668    24213327.260    99149501.634 6      4878.442    24213327.740    99149541.661 7      4878.442
> 2025 04 04 17 45 44.0000000  0 14
G02  22809722.380   119865895.516 7      1511.885    22809721.220   119865895.526 6      1511.885    22809727.180    93402015.387 6      1178.092
G03  20033894.720   105278824.229 8      1861.468    20033894.360   105278824.237 8      1861.468    20033900.280    82035471.054 8      1450.495    20033901.020    82035476.058 8      1450.495
G14  22242851.640   116886954.274 6      2115.578    22242850.720   116886954.284 2      2115.578    22242858.160    91080763.462 2      1648.502    22242857.840    91080792.489 6      1648.502
R03  19884348.200   106442470.690 7      1660.792    19884347.960   106442470.719 7      1660.792    19884358.760    82788632.906 8      1291.727    19884358.940    82788631.909 8      1291.727
G01  21261727.140   111731124.962 7      2037.084    21261726.480   111731124.973 6      2037.084    21261731.420    87063232.831 6      1587.338    21261731.860    87063233.834 8      1587.338
R04  20061261.760   107427145.180 8      5622.493    20061262.460   107427145.219 7      5622.493    20061275.080    83554506.108 8      4373.050    20061275.200    83554506.116 8      4373.050
R18  20439826.980   109109177.531 7      3026.984    20439827.300   109109177.532 7      3026.984    20439836.960    84862738.731 8      2354.321    20439837.060    84862740.736 8      2354.321
G17  22443218.880   117939915.805 7      5363.402    22443217.900   117939915.804 6      5363.402    22443223.780    91901250.125 6      4179.274    22443224.180    91901252.138 7      4179.274
G08  22782364.880   119722128.542 7      -196.420    22782364.380   119722128.550 7      -196.420    22782378.400    93290020.118 7      -153.054    22782378.980    93290025.127 7      -153.054
R17  22400701.360   119870669.795 7      1057.608    22400700.180   119870669.810 7      1057.608    22400718.180    93232816.415 7       822.584    22400717.780    93232814.416 7       822.584
R02  23655000.140   126227620.501 7     -1140.472    23654999.820   126227620.494 6     -1140.472    23655013.100    98177085.284 6      -887.034    23655013.320    98177087.285 6      -887.034
G04  22420666.400   117821399.071 7      5617.492    22420665.760   117821399.081 5      5617.492    22420677.940    91808930.571 5      4377.267    22420678.160    91808938.583 8      4377.267
R16  23408882.840   125046036.994 6      -417.769    23408880.420   125046037.019 6      -417.769    23408904.780    97258111.501 6      -324.932    23408905.420    97258112.499 6      -324.932
G09  24212107.820   127235498.459 6      6261.029    24212107.140   127235498.458 6      6261.029    24212135.700    99144623.167 6      4878.724    24212136.420    99144663.194 7      4878.724
> 2025 04 04 17 45 45.0000000  0 14
G02  22809434.820   119864383.697 7      1511.510    22809433.440   119864383.708 6      1511.510    22809439.500    93400837.349 6      1177.800
G03  20033540.440   105276963.001 8      1860.741    20033540.140   105276963.008 8      1860.741    20033546.080    82034020.752 8      1449.928    20033546.880    82034025.754 8      1449.928
G14  22242449.220   116884838.901 6      2114.960    22242448.160   116884838.914 2      2114.960    22242455.560    91079115.126 2      1648.020    22242455.180    91079144.149 6      1648.020
R03  19884037.740   106440810.302 7      1659.684    19884037.980   106440810.333 7      1659.684    19884048.640    82787341.497 8      1290.865    19884048.620    82787340.502 8      1290.865
G01  21261339.460   111729087.998 7      2036.624    21261338.820   111729088.008 6      2036.624    21261343.880    87061645.592 6      1586.980    21261344.180    87061646.597 8      1586.980
R04  20060211.940   107421522.946 8      5621.705    20060212.880   107421522.980 7      5621.705    20060225.180    83550133.265 8      4372.437    20060225.160    83550133.274 8      4372.437
R18  20439260.180   109106150.646 8      3026.611    20439260.280   109106150.655 7      3026.611    20439269.880    84860384.492 8      2354.030    20439270.220    84860386.494 8      2354.030
G17  22442198.320   117934552.544 7      5362.825    22442197.500   117934552.544 6      5362.825    22442203.180    91897070.967 6      4178.825    22442203.560    91897072.974 7      4178.825
G08  22782402.540   119722325.212 7      -197.098    22782401.700   119722325.219 7      -197.098    22782415.740    93290173.359 7      -153.583    22782416.620    93290178.368 7      -153.583
R17  22400503.560   119869612.189 7      1057.223    22400503.000   119869612.217 7      1057.223    22400520.480    93231993.845 7       822.285    22400520.480    93231991.837 7       822.285
R02  23655214.240   126228761.278 7     -1141.149    23655213.840   126228761.271 6     -1141.149    23655226.700    98177972.559 7      -887.560    23655226.920    98177974.562 6      -887.560
G04  22419597.020   117815781.675 7      5616.991    22419596.680   117815781.680 5      5616.991    22419608.940    91804553.391 5      4376.876    22419608.940    91804561.399 8      4376.876
R16  23408960.760   125046454.793 6      -417.990    23408959.000   125046454.827 6      -417.990    23408983.080    97258436.436 6      -325.103    23408983.840    97258437.432 6      -325.103
G09  24210916.700   127229237.567 6      6260.789    24210915.520   127229237.572 6      6260.789    24210944.120    99139744.583 6      4878.537    24210945.160    99139784.608 7      4878.537
> 2025 04 04 17 45 46.0000000  0 14
G02  22809147.300   119862872.365 7      1511.311    22809146.060   119862872.375 6      1511.311    22809151.900    93399659.683 6      1177.645
G03  20033186.540   105275102.668 8      1860.187    20033186.180   105275102.671 8      1860.187    20033192.100    82032571.143 8      1449.496    20033192.900    82032576.147 8      1449.496
G14  22242046.780   116882724.575 6      2113.931    22242045.760   116882724.590 2      2113.931    22242053.180    91077467.597 2      1647.219    22242053.220    91077496.615 6      1647.219
R03  19883727.920   106439151.182 7      1658.761    19883727.840   106439151.213 7      1658.761    19883738.780    82786051.076 8      1290.147    19883738.740    82786050.084 8      1290.147
G01  21260951.840   111727051.553 7      2036.436    21260951.240   111727051.558 6      2036.436    21260956.240    87060058.750 6      1586.833    21260956.600    87060059.755 8      1586.833
R04  20059162.340   107415901.778 8      5620.955    20059162.920   107415901.812 7      5620.955    20059175.340    83545761.256 8      4371.854    20059175.400    83545761.262 8      4371.854
R18  20438693.140   109103124.413 8      3026.190    20438693.340   109103124.416 7      3026.190    20438703.040    84858030.757 8      2353.704    20438703.080    84858032.761 8      2353.704
G17  22441177.880   117929189.854 7      5362.685    22441176.980   117929189.854 6      5362.685    22441182.800    91892892.252 6      4178.716    22441183.120    91892894.263 7      4178.716
G08  22782440.140   119722522.549 7      -197.437    22782439.620   119722522.564 7      -197.437    22782453.180    93290327.126 7      -153.847    22782454.200    93290332.139 7      -153.847
R17  22400305.820   119868555.300 7      1056.809    22400305.700   119868555.323 7      1056.809    22400322.920    93231171.812 7       821.962    22400322.800    93231169.808 7       821.962
R02  23655428.120   126229902.735 7     -1141.558    23655427.640   126229902.725 6     -1141.558    23655440.760    98178860.362 6      -887.879    23655441.020    98178862.366 7      -887.879
G04  22418528.360   117810164.904 7      5616.687    22418528.080   117810164.906 5      5616.687    22418540.140    91800176.699 5      4376.639    22418539.960    91800184.710 8      4376.639
R16  23409038.900   125046873.103 6      -418.236    23409037.960   125046873.126 6      -418.236    23409061.700    97258761.759 6      -325.295    23409062.120    97258762.761 7      -325.295
G09  24209725.480   127222977.070 6      6260.523    24209724.240   127222977.070 6      6260.523    24209752.720    99134866.300 6      4878.329    24209753.440    99134906.323 7      4878.329
> 2025 04 04 17 45 47.0000000  0 14
G02  22808859.440   119861360.730 7      1511.680    22808858.500   119861360.735 6      1511.680    22808864.200    93398481.788 6      1177.932
G03  20032832.600   105273242.478 8      1859.976    20032832.180   105273242.488 8      1859.976    20032838.120    82031121.650 8      1449.332    20032838.860    82031126.652 8      1449.332
G14  22241643.980   116880610.350 6      2114.084    22241643.420   116880610.361 2      2114.084    22241650.840    91075820.147 2      1647.338    22241651.060    91075849.168 6      1647.338
R03  19883417.740   106437492.576 7      1658.239    19883417.740   106437492.610 7      1658.239    19883428.940    82784761.052 8      1289.741    19883428.940    82784760.057 8      1289.741
G01  21260564.220   111725014.857 7      2036.677    21260563.700   111725014.864 6      2036.677    21260568.580    87058471.717 6      1587.021    21260568.840    87058472.723 8      1587.021
R04  20058112.600   107410280.899 8      5620.588    20058113.600   107410280.933 7      5620.588    20058125.680    83541389.470 8      4371.569    20058125.700    83541389.474 8      4371.569
R18  20438126.240   109100098.040 7      3026.297    20438126.400   109100098.041 7      3026.297    20438136.120    84855676.914 8      2353.786    20438136.320    84855678.916 8      2353.786
G17  22440157.340   117923827.012 7      5362.789    22440156.340   117923827.009 6      5362.789    22440162.220    91888713.422 6      4178.797    22440162.480    91888715.428 7      4178.797
G08  22782477.800   119722719.815 7      -197.373    22782477.080   119722719.830 7      -197.373    22782490.780    93290480.834 7      -153.797    22782491.680    93290485.844 7      -153.797
R17  22400108.320   119867498.338 7      1056.883    22400107.720   119867498.367 7      1056.883    22400125.560    93230349.725 7       822.020    22400125.240    93230347.727 7       822.020
R02  23655641.920   126231044.119 7     -1141.450    23655641.100   126231044.112 6     -1141.450    23655654.840    98179748.112 7      -887.795    23655654.820    98179750.114 7      -887.795
G04  22417459.760   117804548.014 7      5616.719    22417459.180   117804548.019 5      5616.719    22417471.320    91795799.918 5      4376.664    22417471.440    91795807.928 8      4376.664
R16  23409117.100   125047291.160 6      -418.079    23409116.840   125047291.182 6      -418.079    23409139.560    97259086.887 6      -325.172    23409140.480    97259087.889 7      -325.172
G09  24208534.140   127216716.103 6      6261.107    24208533.320   127216716.094 6      6261.107    24208561.400    99129987.645 6      4878.785    24208562.260    99130027.666 7      4878.785
> 2025 04 04 17 45 48.0000000  0 14
G02  22808571.940   119859849.180 7      1511.448    22808570.780   119859849.187 6      1511.448    22808576.620    93397303.959 6      1177.752
G03  20032478.720   105271382.765 8      1859.426    20032478.240   105271382.770 8      1859.426    20032484.260    82029672.525 8      1448.903    20032484.760    82029677.527 8      1448.903
G14  22241241.480   116878496.694 6      2113.404    22241241.120   116878496.706 2      2113.404    22241248.580    91074173.144 2      1646.808    22241248.320    91074202.195 6      1646.808
R03  19883108.000   106435834.822 8      1657.279    19883108.620   106435834.853 7      1657.279    19883119.260    82783471.689 8      1288.995    19883119.440    82783470.694 8      1288.995
G01  21260176.740   111722978.273 7      2036.537    21260176.180   111722978.280 6      2036.537    21260181.140    87056884.769 6      1586.912    21260181.280    87056885.776 8      1586.912
R04  20057063.060   107404660.687 8      5619.828    20057064.160   107404660.718 7      5619.828    20057076.320    83537018.204 8      4370.977    20057076.020    83537018.212 8      4370.977
R18  20437559.240   109097071.887 7      3025.941    20437559.220   109097071.891 7      3025.941    20437569.040    84853323.245 8      2353.510    20437569.120    84853325.247 8      2353.510
G17  22439136.920   117918464.345 7      5362.514    22439135.760   117918464.345 6      5362.514    22439141.580    91884534.725 6      4178.582    22439142.080    91884536.729 7      4178.582
G08  22782515.560   119722917.352 7      -197.650    22782514.560   119722917.367 7      -197.650    22782528.180    93290634.755 7      -154.013    22782528.920    93290639.763 7      -154.013
R17  22399910.840   119866441.698 7      1056.516    22399910.760   119866441.716 7      1056.516    22399928.080    93229527.887 7       821.735    22399927.880    93229525.885 7       821.735
R02  23655856.140   126232185.824 6     -1141.875    23655855.320   126232185.825 6     -1141.875    23655868.620    98180636.103 7      -888.125    23655868.680    98180638.106 7      -888.125
G04  22416390.840   117798931.330 7      5616.493    22416390.200   117798931.340 5      5616.493    22416402.480    91791423.297 5      4376.488    22416402.380    91791431.309 8      4376.488
R16  23409195.500   125047709.243 6      -418.158    23409195.540   125047709.273 6      -418.158    23409217.680    97259412.042 6      -325.234    23409218.800    97259413.042 7      -325.234
G09  24207342.800   127210455.096 6      6261.111    24207342.080   127210455.095 6      6261.111    24207370.000    99125108.965 6      4878.788    24207370.780    99125148.988 7      4878.788
> 2025 04 04 17 45 49.0000000  0 14
G02  22808284.120   119858337.713 7      1511.448    22808283.240   119858337.718 6      1511.448    22808289.000    93396126.188 6      1177.752
G03  20032124.920   105269523.555 8      1859.051    20032124.540   105269523.562 8      1859.051    20032130.380    82028223.798 8      1448.611    20032131.160    82028228.800 8      1448.611
G14  22240839.440   116876383.670 6      2112.824    22240839.000   116876383.686 2      2112.824    22240846.320    91072526.634 2      1646.357    22240846.180    91072555.622 6      1646.357
R03  19882798.680   106434177.942 7      1656.501    19882799.140   106434177.968 7      1656.501    19882809.700    82782183.005 8      1288.390    19882809.900    82782182.010 8      1288.390
G01  21259789.060   111720941.823 7      2036.465    21259788.560   111720941.831 6      2036.465    21259793.580    87055297.935 6      1586.856    21259793.820    87055298.939 8      1586.856
R04  20056013.560   107399041.213 8      5619.143    20056014.820   107399041.247 7      5619.143    20056026.700    83532647.511 8      4370.444    20056026.700    83532647.517 8      4370.444
R18  20436992.300   109094045.974 8      3025.809    20436992.300   109094045.980 7      3025.809    20437002.300    84850969.761 8      2353.407    20437002.400    84850971.763 8      2353.407
G17  22438116.580   117913101.886 7      5362.418    22438115.340   117913101.883 6      5362.418    22438121.360    91880356.191 6      4178.507    22438121.760    91880358.194 7      4178.507
G08  22782553.140   119723115.191 7      -197.861    22782552.020   119723115.201 7      -197.861    22782565.820    93290788.909 7      -154.177    22782566.880    93290793.915 7      -154.177
R17  22399713.740   119865385.360 7      1056.319    22399713.060   119865385.372 7      1056.319    22399730.440    93228706.285 7       821.581    22399730.220    93228704.281 7       821.581
R02  23656069.880   126233327.868 6     -1142.095    23656069.260   126233327.853 6     -1142.095    23656082.440    98181524.351 7      -888.296    23656082.800    98181526.350 7      -888.296
G04  22415321.980   117793314.914 7      5616.320    22415321.500   117793314.924 5      5616.320    22415333.680    91787046.883 5      4376.353    22415333.920    91787054.899 8      4376.353
R16  23409274.160   125048127.438 6      -418.212    23409274.140   125048127.455 6      -418.212    23409295.840    97259737.276 6      -325.276    23409296.880    97259738.267 7      -325.276
G09  24206151.660   127204194.073 6      6261.051    24206150.460   127204194.075 6      6261.051    24206178.460    99120230.274 6      4878.741    24206179.080    99120270.300 7      4878.741
> 2025 04 04 17 45 50.0000000  0 14
G02  22807996.700   119856826.357 7      1511.386    22807995.600   119856826.365 6      1511.386    22808001.460    93394948.510 6      1177.704
G03  20031771.320   105267664.917 8      1858.396    20031770.920   105267664.925 8      1858.396    20031776.700    82026775.507 8      1448.101    20031777.600    82026780.509 8      1448.101
G14  22240437.500   116874271.230 6      2112.061    22240437.120   116874271.243 2      2112.061    22240444.360    91070880.581 2      1645.762    22240444.540    91070909.585 6      1645.762
R03  19882489.360   106432521.968 7      1655.531    19882489.520   106432521.999 7      1655.531    19882500.480    82780895.025 8      1287.635    19882500.300    82780894.030 8      1287.635
G01  21259401.640   111718905.555 7      2036.270    21259401.040   111718905.559 6      2036.270    21259406.080    87053711.233 6      1586.704    21259406.140    87053712.236 8      1586.704
R04  20054964.100   107393422.514 8      5618.351    20054965.480   107393422.548 7      5618.351    20054977.300    83528277.419 8      4369.828    20054977.280    83528277.424 8      4369.828
R18  20436425.680   109091020.354 7      3025.549    20436425.660   109091020.363 7      3025.549    20436435.560    84848616.504 8      2353.204    20436435.540    84848618.506 8      2353.204
G17  22437096.240   117907739.677 7      5362.068    22437094.960   117907739.674 6      5362.068    22437101.120    91876177.853 6      4178.235    22437101.520    91876179.863 7      4178.235
G08  22782590.920   119723313.382 7      -198.337    22782589.900   119723313.394 7      -198.337    22782603.520    93290943.331 7      -154.548    22782604.480    93290948.339 7      -154.548
R17  22399516.160   119864329.300 7      1055.972    22399516.120   119864329.323 6      1055.972    22399533.060    93227884.901 7       821.311    22399532.880    93227882.897 7       821.311
R02  23656284.000   126234470.256 6     -1142.514    23656283.260   126234470.243 6     -1142.514    23656296.700    98182412.875 7      -888.622    23656296.760    98182414.876 7      -888.622
G04  22414253.240   117787698.781 7      5616.054    22414252.720   117787698.788 5      5616.054    22414264.980    91782670.686 5      4376.146    22414265.120    91782678.696 8      4376.146
R16  23409352.100   125048545.724 6      -418.215    23409352.140   125048545.735 6      -418.215    23409373.700    97260062.586 6      -325.278    23409374.940    97260063.582 6      -325.278
G09  24204959.760   127197933.011 6      6261.120    24204958.660   127197933.013 6      6261.120    24204986.880    99115351.549 6      4878.795    24204987.680    99115391.572 7      4878.795
> 2025 04 04 17 45 51.0000000  0 14
G02  22807709.140   119855315.175 7      1511.191    22807708.160   119855315.180 6      1511.191    22807713.940    93393770.965 6      1177.551
G03  20031417.820   105265806.829 8      1857.842    20031417.300   105265806.833 8      1857.842    20031423.260    82025327.649 8      1447.669    20031423.960    82025332.652 8      1447.669
G14  22240036.160   116872159.397 6      2111.510    22240035.220   116872159.412 2      2111.510    22240042.700    91069234.999 2      1645.332    22240042.900    91069263.997 6      1645.332
R03  19882179.940   106430866.924 7      1654.610    19882180.500   106430866.950 7      1654.610    19882191.260    82779607.769 8      1286.919    19882191.160    82779606.776 8      1286.919
G01  21259014.420   111716869.486 7      2036.039    21259013.700   111716869.493 6      2036.039    21259018.560    87052124.685 6      1586.524    21259018.800    87052125.689 8      1586.524
R04  20053914.860   107387804.572 7      5617.684    20053916.680   107387804.606 7      5617.684    20053928.040    83523907.920 8      4369.310    20053928.040    83523907.926 8      4369.310
R18  20435858.900   109087995.060 7      3025.246    20435858.860   109087995.056 7      3025.246    20435868.800    84846263.485 8      2352.969    20435868.760    84846265.491 8      2352.969
G17  22436075.880   117902377.733 7      5361.863    22436074.760   117902377.735 6      5361.863    22436080.700    91871999.719 6      4178.075    22436081.140    91872001.727 7      4178.075
G08  22782628.800   119723511.909 7      -198.632    22782627.920   119723511.922 7      -198.632    22782641.300    93291098.022 7      -154.778    22782642.320    93291103.030 7      -154.778
R17  22399318.700   119863273.607 7      1055.582    22399318.940   119863273.625 7      1055.582    22399335.560    93227063.804 7       821.008    22399335.420    93227061.800 7       821.008
R02  23656498.420   126235613.004 6     -1142.962    23656497.420   126235612.997 6     -1142.962    23656510.840    98183301.685 7      -888.971    23656510.920    98183303.689 7      -888.971
G04  22413184.540   117782082.958 7      5615.732    22413184.060   117782082.969 5      5615.732    22413196.300    91778294.735 5      4375.895    22413196.220    91778302.751 8      4375.895
R16  23409430.300   125048964.170 6      -418.363    23409430.040   125048964.187 6      -418.363    23409452.200    97260388.026 6      -325.394    23409453.500    97260389.030 6      -325.394
G09  24203768.480   127191672.001 6      6261.134    24203767.360   127191672.001 6      6261.134    24203795.420    99110472.869 6      4878.806    24203796.140    99110512.888 7      4878.806
> 2025 04 04 17 45 52.0000000  0 14
G02  22807421.540   119853804.158 7      1511.163    22807420.700   119853804.168 6      1511.163    22807426.440    93392593.554 6      1177.529
G03  20031064.280   105263949.334 8      1857.431    20031063.840   105263949.341 8      1857.431    20031069.740    82023880.257 8      1447.349    20031070.580    82023885.261 8      1447.349
G14  22239634.180   116870048.218 6      2111.237    22239633.480   116870048.236 2      2111.237    22239641.020    91067589.926 2      1645.120    22239641.000    91067618.924 6      1645.120
R03  19881871.380   106429212.823 7      1653.861    19881871.500   106429212.851 7      1653.861    19881882.140    82778321.254 8      1286.336    19881882.500    82778320.259 8      1286.336
G01  21258627.100   111714833.638 7      2035.903    21258626.300   111714833.640 6      2035.903    21258631.300    87050538.323 6      1586.418    21258631.340    87050539.326 8      1586.418
R04  20052865.960   107382187.425 8      5616.991    20052867.780   107382187.459 7      5616.991    20052879.100    83519539.036 8      4368.771    20052879.240    83519539.040 8      4368.771
R18  20435292.200   109084970.084 7      3025.030    20435291.880   109084970.074 7      3025.030    20435302.100    84843910.736 8      2352.801    20435302.080    84843912.738 8      2352.801
G17  22435055.960   117897016.097 7      5361.710    22435054.440   117897016.096 6      5361.710    22435060.220    91867821.824 6      4177.956    22435060.620    91867823.829 7      4177.956
G08  22782666.660   119723710.838 7      -198.886    22782665.740   119723710.849 7      -198.886    22782679.280    93291253.032 7      -154.976    22782680.080    93291258.036 7      -154.976
R17  22399121.040   119862218.302 7      1055.401    22399121.040   119862218.320 7      1055.401    22399138.440    93226243.007 7       820.868    22399138.800    93226241.007 7       820.868
R02  23656712.280   126236756.070 7     -1142.965    23656710.680   126236756.062 6     -1142.965    23656725.460    98184190.769 7      -888.973    23656725.800    98184192.773 7      -888.973
G04  22412116.380   117776467.483 7      5615.462    22412115.540   117776467.493 5      5615.462    22412127.600    91773919.056 5      4375.684    22412127.740    91773927.074 8      4375.684
R16  23409509.200   125049382.848 6      -418.525    23409508.200   125049382.860 6      -418.525    23409530.700    97260713.646 6      -325.519    23409532.220    97260714.652 6      -325.519
G09  24202576.900   127185411.029 6      6261.340    24202575.860   127185411.031 6      6261.340    24202603.820    99105594.214 6      4878.966    24202604.380    99105634.235 7      4878.966
> 2025 04 04 17 45 53.0000000  0 14
G02  22807134.040   119852292.978 7      1511.193    22807133.040   119852292.988 6      1511.193    22807138.720    93391416.013 6      1177.553
G03  20030710.760   105262092.094 8      1857.056    20030710.360   105262092.101 8      1857.056    20030716.300    82022433.063 8      1447.057    20030717.060    82022438.065 8      1447.057
G14  22239232.780   116867937.404 6      2110.727    22239231.820   116867937.420 2      2110.727    22239239.400    91065945.134 2      1644.722    22239239.400    91065974.122 6      1644.722
R03  19881562.480   106427559.337 7      1653.193    19881562.520   106427559.366 7      1653.193    19881573.320    82777035.214 8      1285.817    19881573.500    82777034.217 8      1285.817
G01  21258239.660   111712797.645 7      2036.042    21258238.760   111712797.653 6      2036.042    21258243.860    87048951.835 6      1586.526    21258244.020    87048952.836 8      1586.526
R04  20051817.280   107376570.683 8      5616.419    20051818.800   107376570.717 7      5616.419    20051830.220    83515170.471 8      4368.326    20051830.420    83515170.478 8      4368.326
R18  20434725.640   109081945.076 7      3024.967    20434725.080   109081945.074 7      3024.967    20434735.420    84841557.956 8      2352.752    20434735.560    84841559.958 8      2352.752
G17  22434035.420   117891654.397 7      5361.692    22434034.200   117891654.397 6      5361.692    22434039.900    91863643.880 6      4177.942    22434040.720    91863645.891 7      4177.942
G08  22782704.560   119723909.797 7      -198.950    22782703.560   119723909.804 7      -198.950    22782717.060    93291408.046 7      -155.026    22782717.780    93291413.054 7      -155.026
R17  22398924.460   119861163.024 7      1055.147    22398924.740   119861163.041 7      1055.147    22398940.640    93225422.224 7       820.670    22398941.020    93225420.229 7       820.670
R02  23656926.260   126237899.258 7     -1143.475    23656925.820   126237899.253 6     -1143.475    23656939.640    98185079.918 7      -889.369    23656939.860    98185081.919 7      -889.369
G04  22411047.540   117770851.986 7      5615.487    22411046.920   117770851.993 5      5615.487    22411058.920    91769543.357 5      4375.704    22411059.000    91769551.372 8      4375.704
R16  23409587.720   125049801.356 6      -418.477    23409586.820   125049801.373 6      -418.477    23409609.160    97261039.135 6      -325.482    23409610.220    97261040.139 6      -325.482
G09  24201385.320   127179149.769 6      6261.380    24201383.900   127179149.769 6      6261.380    24201412.460    99100715.333 6      4878.997    24201412.580    99100755.366 7      4878.997
> 2025 04 04 17 45 54.0000000  0 14
G02  22806846.720   119850781.853 7      1511.236    22806845.380   119850781.865 6      1511.236    22806851.180    93390238.515 6      1177.587
G03  20030357.540   105260235.340 8      1856.596    20030357.020   105260235.345 8      1856.596    20030363.060    82020986.244 8      1446.698    20030363.780    82020991.244 8      1446.698
G14  22238830.840   116865827.111 6      2110.037    22238830.260   116865827.126 2      2110.037    22238837.840    91064300.752 2      1644.185    22238838.380    91064329.744 6      1644.185
R03  19881253.620   106425906.730 7      1652.325    19881253.900   106425906.758 7      1652.325    19881264.560    82775749.856 8      1285.142    19881264.460    82775748.857 8      1285.142
G01  21257852.200   111710761.789 7      2035.952    21257851.480   111710761.794 6      2035.952    21257856.440    87047365.454 6      1586.456    21257856.800    87047366.453 8      1586.456
R04  20050768.700   107370954.621 8      5615.804    20050769.920   107370954.655 7      5615.804    20050781.480    83510802.427 8      4367.847    20050781.700    83510802.436 8      4367.847
R18  20434159.240   109078920.300 8      3024.790    20434158.340   109078920.303 7      3024.790    20434168.780    84839205.358 8      2352.614    20434168.980    84839207.363 8      2352.614
G17  22433015.260   117886292.889 7      5361.524    22433013.900   117886292.892 6      5361.524    22433019.660    91859466.094 6      4177.811    22433020.140    91859468.101 7      4177.811
G08  22782742.660   119724109.052 7      -199.288    22782741.340   119724109.057 7      -199.288    22782754.960    93291563.299 7      -155.289    22782755.660    93291568.305 7      -155.289
R17  22398727.060   119860108.007 7      1055.000    22398727.920   119860108.028 7      1055.000    22398743.740    93224601.652 7       820.556    22398743.940    93224599.656 7       820.556
R02  23657140.220   126239042.721 6     -1143.443    23657139.920   126239042.711 6     -1143.443    23657153.580    98185969.274 7      -889.344    23657154.040    98185971.282 7      -889.344
G04  22409979.000   117765236.726 7      5615.300    22409978.340   117765236.731 5      5615.300    22409990.380    91765167.843 5      4375.558    22409990.460    91765175.851 8      4375.558
R16  23409665.380   125050219.944 6      -418.432    23409665.780   125050219.953 6      -418.432    23409687.960    97261364.666 6      -325.447    23409688.720    97261365.666 6      -325.447
G09  24200193.820   127172888.439 6      6261.542    24200192.320   127172888.442 6      6261.542    24200220.920    99095836.405 6      4879.124    24200221.120    99095876.426 7      4879.124
> 2025 04 04 17 45 55.0000000  0 14
G02  22806559.280   119849270.681 7      1511.030    22806557.940   119849270.693 6      1511.030    22806563.620    93389060.980 6      1177.426
G03  20030004.220   105258378.915 8      1856.067    20030003.760   105258378.920 8      1856.067    20030009.780    82019539.681 8      1446.286    20030010.460    82019544.685 8      1446.286
G14  22238428.860   116863717.201 6      2109.595    22238428.720   116863717.216 2      2109.595    22238436.020    91062656.666 2      1643.840    22238437.260    91062685.658 6      1643.840
R03  19880945.000   106424254.855 7      1651.363    19880945.380   106424254.876 7      1651.363    19880955.900    82774465.059 8      1284.393    19880956.080    82774464.058 8      1284.393
G01  21257464.920   111708725.886 7      2035.711    21257464.020   111708725.894 6      2035.711    21257468.920    87045779.038 6      1586.269    21257469.360    87045780.043 8      1586.269
R04  20049719.640   107365339.105 8      5614.974    20049721.440   107365339.150 7      5614.974    20049732.820    83506434.822 8      4367.202    20049732.920    83506434.833 8      4367.202
R18  20433592.240   109075895.588 7      3024.500    20433591.900   109075895.594 7      3024.500    20433602.180    84836852.809 8      2352.389    20433602.280    84836854.811 8      2352.389
G17  22431994.860   117880931.416 7      5361.310    22431993.660   117880931.418 6      5361.310    22431999.520    91855288.329 6      4177.644    22431999.640    91855290.338 7      4177.644
G08  22782780.440   119724308.394 7      -199.586    22782779.240   119724308.404 7      -199.586    22782792.820    93291718.633 7      -155.522    22782793.660    93291723.647 7      -155.522
R17  22398529.880   119859053.160 7      1054.640    22398529.920   119859053.169 7      1054.640    22398546.720    93223781.209 7       820.275    22398547.080    93223779.207 7       820.275
R02  23657355.100   126240186.400 6     -1143.975    23657353.680   126240186.390 6     -1143.975    23657368.440    98186858.802 7      -889.758    23657368.360    98186860.808 7      -889.758
G04  22408910.340   117759621.542 7      5614.955    22408909.740   117759621.549 5      5614.955    22408921.880    91760792.388 5      4375.290    22408921.980    91760800.404 8      4375.290
R16  23409743.800   125050638.424 6      -418.550    23409744.480   125050638.447 6      -418.550    23409766.940    97261690.139 6      -325.539    23409767.220    97261691.141 7      -325.539
G09  24199002.060   127166626.928 6      6261.440    24199000.480   127166626.930 6      6261.440    24199029.480    99090957.336 6      4879.044    24199029.420    99090997.349 7      4879.044
> 2025 04 04 17 45 56.0000000  0 14
G02  22806271.640   119847759.487 7      1510.948    22806270.380   119847759.495 6      1510.948    22806276.020    93387883.425 6      1177.362
G03  20029650.980   105256522.912 8      1855.596    20029650.560   105256522.917 8      1855.596    20029656.660    82018093.448 8      1445.919    20029657.320    82018098.452 8      1445.919
G14  22238027.660   116861607.803 6      2108.973    22238027.280   116861607.821 2      2108.973    22238034.720    91061012.986 2      1643.356    22238035.160    91061041.965 6      1643.356
R03  19880636.420   106422603.747 8      1650.531    19880637.000   106422603.772 7      1650.531    19880647.440    82773180.870 8      1283.746    19880647.500    82773179.870 8      1283.746
G01  21257077.360   111706690.020 7      2035.649    21257076.540   111706690.025 6      2035.649    21257081.440    87044192.652 6      1586.220    21257081.900    87044193.652 8      1586.220
R04  20048671.280   107359724.197 8      5614.384    20048673.220   107359724.241 7      5614.384    20048684.140    83502067.676 8      4366.743    20048684.360    83502067.686 8      4366.743
R18  20433025.700   109072871.054 7      3024.246    20433025.200   109072871.047 7      3024.246    20433035.560    84834500.386 8      2352.191    20433035.740    84834502.388 8      2352.191
G17  22430974.580   117875570.071 7      5361.035    22430973.420   117875570.071 6      5361.035    22430979.200    91851110.660 6      4177.429    22430979.220    91851112.666 7      4177.429
G08  22782818.300   119724507.956 7      -199.885    22782817.240   119724507.967 7      -199.885    22782830.860    93291874.128 7      -155.755    22782831.800    93291879.140 7      -155.755
R17  22398332.720   119857998.539 7      1054.157    22398333.260   119857998.554 7      1054.157    22398349.760    93222960.942 7       819.900    22398349.900    93222958.941 7       819.900
R02  23657569.420   126241330.274 6     -1144.183    23657568.520   126241330.251 6     -1144.183    23657582.420    98187748.478 7      -889.920    23657582.940    98187750.486 7      -889.920
G04  22407841.980   117754006.499 7      5614.755    22407841.060   117754006.512 5      5614.755    22407853.100    91756417.047 5      4375.134    22407853.260    91756425.060 8      4375.134
R16  23409821.760   125051056.927 6      -418.799    23409822.500   125051056.944 6      -418.799    23409845.320    97262015.613 6      -325.733    23409845.600    97262016.611 7      -325.733
G09  24197810.460   127160365.290 6      6261.297    24197808.880   127160365.295 6      6261.297    24197837.800    99086078.165 6      4878.933    24197837.920    99086118.180 7      4878.933
> 2025 04 04 17 45 57.0000000  0 14
G02  22805984.060   119846248.407 7      1511.044    22805982.820   119846248.417 6      1511.044    22805988.480    93386705.956 6      1177.437
G03  20029297.920   105254667.428 8      1855.357    20029297.500   105254667.430 8      1855.357    20029303.500    82016647.619 8      1445.733    20029304.260    82016652.617 8      1445.733
G14  22237626.180   116859498.947 6      2108.870    22237626.040   116859498.962 2      2108.870    22237633.340    91059369.719 2      1643.275    22237634.120    91059398.707 6      1643.275
R03  19880328.400   106420953.556 7      1649.810    19880328.640   106420953.576 7      1649.810    19880339.100    82771897.388 8      1283.186    19880339.220    82771896.385 8      1283.186
G01  21256690.060   111704654.300 7      2035.748    21256689.140   111704654.308 6      2035.748    21256693.980    87042606.382 6      1586.297    21256694.420    87042607.381 8      1586.297
R04  20047622.860   107354109.977 8      5613.976    20047624.720   107354110.019 7      5613.976    20047635.740    83497701.068 8      4366.426    20047635.980    83497701.077 8      4366.426
R18  20432459.120   109069846.772 7      3024.245    20432458.700   109069846.765 7      3024.245    20432469.020    84832148.170 8      2352.190    20432469.160    84832150.176 8      2352.190
G17  22429954.480   117870208.947 7      5361.024    22429953.280   117870208.946 6      5361.024    22429959.020    91846933.165 6      4177.422    22429959.000    91846935.177 7      4177.422
G08  22782856.260   119724707.821 7      -199.882    22782855.420   119724707.831 7      -199.882    22782868.680    93292029.862 7      -155.752    22782870.180    93292034.879 7      -155.752
R17  22398135.820   119856944.176 7      1054.338    22398135.640   119856944.191 7      1054.338    22398152.520    93222140.884 7       820.041    22398152.840    93222138.886 7       820.041
R02  23657784.220   126242474.415 6     -1144.124    23657782.760   126242474.400 6     -1144.124    23657797.140    98188638.380 7      -889.874    23657797.520    98188640.390 7      -889.874
G04  22406773.520   117748391.741 7      5614.752    22406772.500   117748391.751 5      5614.752    22406784.640    91752041.920 5      4375.131    22406785.100    91752049.930 8      4375.131
R16  23409899.960   125051475.517 6      -418.559    23409900.500   125051475.515 6      -418.559    23409923.840    97262341.144 6      -325.546    23409924.200    97262342.138 7      -325.546
G09  24196619.140   127154103.632 6      6261.558    24196617.360   127154103.629 6      6261.558    24196646.400    99081198.977 6      4879.136    24196646.560    99081238.990 7      4879.136
> 2025 04 04 17 45 58.0000000  0 14
G02  22805696.520   119844737.314 7      1510.851    22805695.200   119844737.327 6      1510.851    22805700.920    93385528.483 6      1177.286
G03  20028944.960   105252812.390 8      1854.606    20028944.480   105252812.395 8      1854.606    20028950.520    82015202.139 8      1445.148    20028951.420    82015207.143 8      1445.148
G14  22237225.340   116857390.629 6      2107.959    22237224.640   116857390.645 2      2107.959    22237232.180    91057726.875 2      1642.565    22237233.440    91057755.872 6      1642.565
R03  19880020.220   106419304.147 7      1648.712    19880020.280   106419304.170 7      1648.712    19880031.000    82770614.520 8      1282.332    19880030.880    82770613.517 8      1282.332
G01  21256302.520   111702618.655 7      2035.385    21256301.900   111702618.660 6      2035.385    21256306.760    87041020.162 6      1586.015    21256307.080    87041021.164 8      1586.015
R04  20046574.160   107348496.383 8      5613.009    20046576.460   107348496.428 7      5613.009    20046587.460    83493334.951 8      4365.674    20046587.440    83493334.955 8      4365.674
R18  20431892.660   109066822.682 7      3023.687    20431891.960   109066822.677 7      3023.687    20431902.520    84829796.104 8      2351.757    20431902.640    84829798.108 8      2351.757
G17  22428934.260   117864847.954 7      5360.668    22428933.100   117864847.951 6      5360.668    22428938.920    91842755.770 6      4177.144    22428939.060    91842757.780 7      4177.144
G08  22782894.540   119724907.936 7      -200.469    22782893.460   119724907.948 7      -200.469    22782906.840    93292185.794 7      -156.210    22782907.900    93292190.804 7      -156.210
R17  22397938.940   119855890.056 7      1053.586    22397938.700   119855890.074 7      1053.586    22397955.760    93221321.015 7       819.456    22397955.900    93221319.019 7       819.456
R02  23657998.400   126243618.823 6     -1144.774    23657997.180   126243618.810 6     -1144.774    23658011.740    98189528.481 7      -890.379    23658011.780    98189530.489 7      -890.379
G04  22405704.760   117742777.159 7      5614.242    22405704.020   117742777.164 5      5614.242    22405716.260    91747666.931 5      4374.734    22405716.460    91747674.943 8      4374.734
R16  23409979.180   125051894.124 6      -418.944    23409978.460   125051894.138 6      -418.944    23410002.060    97262666.719 6      -325.845    23410002.380    97262667.710 7      -325.845
G09  24195427.220   127147841.816 6      6261.661    24195425.780   127147841.802 6      6261.661    24195454.720    99076319.660 6      4879.217    24195455.220    99076359.675 7      4879.217
> 2025 04 04 17 45 59.0000000  0 14
G02  22805409.060   119843226.404 7      1510.839    22805407.680   119843226.412 6      1510.839    22805413.400    93384351.151 6      1177.277
G03  20028592.060   105250957.917 8      1854.138    20028591.680   105250957.924 8      1854.138    20028597.600    82013757.099 8      1444.783    20028598.420    82013762.101 8      1444.783
G14  22236824.660   116855282.977 5      2107.135    22236823.300   116855282.992 2      2107.135    22236831.200    91056084.548 2      1641.923    22236832.360    91056113.539 6      1641.923
R03  19879712.380   106417655.661 7      1648.015    19879712.480   106417655.681 7      1648.015    19879723.180    82769332.367 8      1281.790    19879722.940    82769331.368 8      1281.790
G01  21255915.260   111700583.188 7      2035.464    21255914.540   111700583.193 6      2035.464    21255919.300    87039434.086 6      1586.076    21255919.680    87039435.089 8      1586.076
R04  20045526.320   107342883.563 8      5612.442    20045528.280   107342883.605 7      5612.442    20045539.280    83488969.432 8      4365.233    20045539.500    83488969.437 8      4365.233
R18  20431326.280   109063798.880 7      3023.687    20431325.820   109063798.873 7      3023.687    20431336.040    84827444.256 8      2351.757    20431336.040    84827446.260 8      2351.757
G17  22427914.120   117859487.224 7      5360.561    22427912.920   117859487.226 6      5360.561    22427918.820    91838578.588 6      4177.061    22427918.800    91838580.596 7      4177.061
G08  22782932.520   119725108.386 7      -200.665    22782931.560   119725108.399 7      -200.665    22782945.040    93292341.983 7      -156.362    22782945.660    93292346.995 7      -156.362
R17  22397742.220   119854836.241 7      1053.505    22397742.040   119854836.259 7      1053.505    22397759.200    93220501.379 7       819.393    22397758.700    93220499.379 7       819.393
R02  23658212.640   126244763.609 6     -1145.014    23658211.700   126244763.594 6     -1145.014    23658226.260    98190418.858 7      -890.566    23658226.740    98190420.868 7      -890.566
G04  22404636.540   117737162.889 7      5614.030    22404635.760   117737162.894 5      5614.030    22404647.860    91743292.192 5      4374.569    22404648.240    91743300.206 8      4374.569
R16  23410057.440   125052312.920 6      -418.903    23410056.360   125052312.931 6      -418.903    23410080.420    97262992.420 7      -325.813    23410081.100    97262993.414 7      -325.813
G09  24194235.480   127141580.049 6      6261.798    24194234.300   127141580.039 6      6261.798    24194263.420    99071440.394 6      4879.323    24194263.800    99071480.413 7      4879.323
> 2025 04 04 17 46  0.0000000  0 14
G02  22805121.380   119841715.414 7      1511.032    22805120.220   119841715.424 6      1511.032    22805125.820    93383173.763 6      1177.428
G03  20028239.440   105249103.785 8      1854.002    20028238.760   105249103.790 8      1854.002    20028244.800    82012312.324 8      1444.677    20028245.620    82012317.324 8      1444.677
G14  22236423.960   116853175.699 5      2106.912    22236422.400   116853175.715 2      2106.912    22236430.280    91054442.514 2      1641.750    22236431.120    91054471.513 6      1641.750
R03  19879404.680   106416007.898 7      1647.401    19879404.760   106416007.929 7      1647.401    19879415.200    82768050.781 8      1281.312    19879415.220    82768049.782 8      1281.312
G01  21255527.660   111698547.705 7      2035.530    21255527.080   111698547.712 6      2035.530    21255532.040    87037848.000 6      1586.127    21255532.460    87037849.005 8      1586.127
R04  20044478.080   107337271.301 8      5612.019    20044480.320   107337271.340 7      5612.019    20044491.280    83484604.341 8      4364.903    20044491.200    83484604.345 8      4364.903
R18  20430759.760   109060775.179 7      3023.605    20430759.220   109060775.175 7      3023.605    20430769.620    84825092.495 8      2351.692    20430769.580    84825094.501 8      2351.692
G17  22426894.000   117854126.555 7      5360.661    22426892.820   117854126.554 6      5360.661    22426898.660    91834401.447 6      4177.138    22426898.720    91834403.455 7      4177.138
G08  22782970.820   119725308.984 7      -200.693    22782969.720   119725308.994 7      -200.693    22782983.200    93292498.283 7      -156.384    22782984.220    93292503.299 7      -156.384
R17  22397545.180   119853782.571 7      1053.559    22397545.060   119853782.588 7      1053.559    22397562.280    93219681.845 7       819.434    22397561.900    93219679.846 7       819.434
R02  23658426.860   126245908.524 6     -1145.082    23658425.860   126245908.522 6     -1145.082    23658441.100    98191309.362 7      -890.619    23658441.240    98191311.373 7      -890.619
G04  22403568.300   117731548.698 7      5614.038    22403567.380   117731548.708 5      5614.038    22403579.380    91738917.514 5      4374.575    22403579.800    91738925.530 7      4374.575
R16  23410136.420   125052731.668 6      -418.619    23410135.120   125052731.653 6      -418.619    23410158.820    97263318.063 7      -325.592    23410159.260    97263319.052 7      -325.592
G09  24193043.960   127135318.070 6      6262.178    24193042.640   127135318.062 6      6262.178    24193072.060    99066560.963 6      4879.619    24193072.260    99066600.992 7      4879.619
> 2025 04 04 17 46  1.0000000  0 14
G02  22804833.740   119840204.525 7      1510.703    22804832.680   119840204.538 6      1510.703    22804838.400    93381996.450 6      1177.171
G03  20027886.540   105247250.163 8      1853.253    20027886.120   105247250.166 8      1853.253    20027892.040    82010867.945 8      1444.093    20027892.900    82010872.945 8      1444.093
G14  22236022.940   116851068.945 5      2106.426    22236021.420   116851068.958 2      2106.426    22236029.540    91052800.885 2      1641.371    22236030.320    91052829.879 6      1641.371
R03  19879097.240   106414361.004 8      1646.386    19879097.240   106414361.030 7      1646.386    19879107.540    82766769.862 8      1280.523    19879107.440    82766768.863 8      1280.523
G01  21255140.460   111696512.348 7      2035.225    21255139.820   111696512.356 6      2035.225    21255144.820    87036262.007 6      1585.889    21255145.120    87036263.011 8      1585.889
R04  20043430.200   107331659.712 8      5611.168    20043432.120   107331659.765 7      5611.168    20043443.340    83480239.791 8      4364.242    20043443.340    83480239.796 8      4364.242
R18  20430193.300   109057751.714 7      3023.228    20430192.820   109057751.704 7      3023.228    20430203.300    84822740.909 8      2351.400    20430203.160    84822742.915 8      2351.400
G17  22425873.960   117848766.074 7      5360.288    22425872.780   117848766.074 6      5360.288    22425878.600    91830224.455 6      4176.848    22425878.660    91830226.460 7      4176.848
G08  22783009.220   119725509.860 7      -201.101    22783007.960   119725509.871 7      -201.101    22783021.460    93292654.803 7      -156.702    22783022.740    93292659.820 7      -156.702
R17  22397348.400   119852729.197 7      1053.139    22397347.960   119852729.223 7      1053.139    22397365.140    93218862.551 7       819.108    22397365.280    93218860.547 7       819.108
R02  23658642.020   126247053.756 6     -1145.346    23658640.600   126247053.733 6     -1145.346    23658655.900    98192200.079 7      -890.824    23658655.580    98192202.095 7      -890.824
G04  22402499.980   117725934.728 7      5613.821    22402499.160   117725934.735 5      5613.821    22402511.040    91734543.004 5      4374.406    22402511.380    91734551.020 8      4374.406
R16  23410214.740   125053150.421 6      -418.750    23410214.120   125053150.409 6      -418.750    23410237.220    97263643.737 7      -325.694    23410237.500    97263644.727 7      -325.694
G09  24191852.400   127129056.083 6      6261.952    24191850.920   127129056.080 6      6261.952    24191880.420    99061681.527 6      4879.443    24191880.440    99061721.553 7      4879.443
> 2025 04 04 17 46  2.0000000  0 14
G02  22804546.380   119838693.808 7      1510.500    22804545.240   119838693.820 6      1510.500    22804550.800    93380819.261 6      1177.013
G03  20027534.000   105245397.130 8      1852.579    20027533.460   105245397.138 8      1852.579    20027539.480    82009424.033 8      1443.568    20027540.380    82009429.035 8      1443.568
G14  22235622.000   116848962.911 5      2105.733    22235620.700   116848962.921 2      2105.733    22235628.800    91051159.821 2      1640.831    22235629.120    91051188.799 6      1640.831
R03  19878789.540   106412715.085 7      1645.354    19878789.800   106412715.108 7      1645.354    19878799.980    82765489.703 8      1279.720    19878800.080    82765488.704 8      1279.720
G01  21254753.080   111694477.228 7      2034.879    21254752.460   111694477.228 6      2034.879    21254757.520    87034676.204 6      1585.620    21254758.000    87034677.205 8      1585.620
R04  20042382.520   107326048.933 8      5610.315    20042384.480   107326048.986 7      5610.315    20042395.680    83475875.858 8      4363.579    20042395.660    83475875.862 8      4363.579
R18  20429626.960   109054728.595 7      3022.824    20429626.760   109054728.585 7      3022.824    20429636.900    84820389.598 8      2351.085    20429636.940    84820391.605 8      2351.085
G17  22424853.860   117843405.899 7      5359.935    22424852.780   117843405.901 6      5359.935    22424858.560    91826047.701 6      4176.573    22424858.880    91826049.710 7      4176.573
G08  22783047.340   119725711.134 7      -201.546    22783046.380   119725711.144 7      -201.546    22783059.720    93292811.636 7      -157.049    22783060.700    93292816.652 7      -157.049
R17  22397151.560   119851676.255 7      1052.584    22397151.380   119851676.280 7      1052.584    22397168.460    93218043.591 7       818.677    22397168.480    93218041.589 7       818.677
R02  23658856.660   126248199.391 6     -1146.061    23658855.740   126248199.386 6     -1146.061    23658870.540    98193091.147 7      -891.381    23658870.640    98193093.159 7      -891.381
G04  22401431.760   117720321.134 7      5613.446    22401430.840   117720321.141 5      5613.446    22401442.700    91730168.783 5      4374.113    22401442.940    91730176.787 7      4374.113
R16  23410293.280   125053569.377 6      -419.160    23410291.980   125053569.368 6      -419.160    23410315.540    97263969.563 7      -326.013    23410315.980    97263970.561 7      -326.013
G09  24190660.920   127122794.144 6      6261.871    24190659.380   127122794.138 6      6261.871    24190688.460    99056802.120 6      4879.380    24190687.960    99056842.135 7      4879.380
> 2025 04 04 17 46  3.0000000  0 14
G02  22804259.100   119837183.145 7      1510.739    22804257.740   119837183.155 6      1510.739    22804263.240    93379642.121 6      1177.199
G03  20027181.280   105243544.578 8      1852.394    20027180.920   105243544.580 8      1852.394    20027186.940    82007980.486 8      1443.424    20027188.020    82007985.486 8      1443.424
G14  22235221.060   116846857.431 5      2105.114    22235220.040   116846857.441 2      2105.114    22235228.200    91049519.188 2      1640.348    22235228.440    91049548.185 6      1640.348
R03  19878482.000   106411070.034 7      1644.616    19878482.300   106411070.057 7      1644.616    19878492.740    82764210.225 8      1279.146    19878492.700    82764209.224 8      1279.146
G01  21254366.080   111692442.194 7      2035.061    21254365.200   111692442.199 6      2035.061    21254370.160    87033090.467 6      1585.762    21254370.540    87033091.473 8      1585.762
R04  20041334.940   107320438.844 8      5609.774    20041336.940   107320438.883 7      5609.774    20041347.980    83471512.451 8      4363.158    20041347.940    83471512.458 8      4363.158
R18  20429060.800   109051705.668 7      3022.912    20429060.280   109051705.661 7      3022.912    20429070.640    84818038.435 8      2351.154    20429070.740    84818040.440 8      2351.154
G17  22423833.900   117838045.912 7      5359.941    22423832.840   117838045.912 6      5359.941    22423838.540    91821871.092 6      4176.578    22423839.040    91821873.095 7      4176.578
G08  22783085.520   119725912.683 7      -201.592    22783084.600   119725912.693 7      -201.592    22783098.020    93292968.674 7      -157.084    22783099.100    93292973.693 7      -157.084
R17  22396954.480   119850623.545 7      1052.666    22396954.720   119850623.571 7      1052.666    22396971.720    93217224.817 7       818.740    22396971.780    93217222.813 7       818.740
R02  23659071.420   126249345.303 6     -1146.087    23659070.180   126249345.299 6     -1146.087    23659085.180    98193982.414 7      -891.401    23659085.440    98193984.422 7      -891.401
G04  22400363.500   117714707.739 7      5613.532    22400362.500   117714707.749 5      5613.532    22400374.320    91725794.722 5      4374.180    22400374.620    91725802.742 7      4374.180
R16  23410371.680   125053988.384 6      -419.022    23410370.080   125053988.372 6      -419.022    23410394.020    97264295.428 7      -325.906    23410394.420    97264296.426 6      -325.906
G09  24189468.680   127116532.136 6      6262.014    24189467.480   127116532.133 6      6262.014    24189496.300    99051922.660 6      4879.491    24189496.540    99051962.683 7      4879.491
> 2025 04 04 17 46  4.0000000  0 14
G02  22803971.340   119835672.454 7      1510.618    22803970.360   119835672.469 6      1510.618    22803975.780    93378464.961 6      1177.105
G03  20026828.860   105241692.406 8      1851.922    20026828.380   105241692.411 8      1851.922    20026834.400    82006537.236 8      1443.056    20026835.280    82006542.238 8      1443.056
G14  22234820.780   116844752.345 5      2104.685    22234819.580   116844752.355 2      2104.685    22234827.640    91047878.867 2      1640.014    22234828.040    91047907.863 6      1640.014
R03  19878175.000   106409425.694 8      1643.840    19878175.080   106409425.717 7      1643.840    19878185.420    82762931.296 8      1278.542    19878185.680    82762930.297 8      1278.542
G01  21253978.740   111690407.177 7      2034.942    21253977.900   111690407.182 6      2034.942    21253983.000    87031504.739 6      1585.669    21253983.340    87031505.738 8      1585.669
R04  20040287.480   107314829.294 8      5609.211    20040289.280   107314829.328 7      5609.211    20040300.420    83467149.478 8      4362.720    20040300.560    83467149.482 8      4362.720
R18  20428494.440   109048682.862 7      3022.668    20428494.020   109048682.860 7      3022.668    20428504.420    84815687.368 8      2350.964    20428504.420    84815689.372 8      2350.964
G17  22422813.900   117832685.991 7      5359.848    22422812.800   117832685.991 6      5359.848    22422818.500    91817694.535 6      4176.505    22422819.100    91817696.539 7      4176.505
G08  22783124.000   119726114.400 7      -201.878    22783123.180   119726114.405 7      -201.878    22783136.480    93293125.853 7      -157.308    22783137.080    93293130.871 7      -157.308
R17  22396757.660   119849571.006 7      1052.349    22396757.720   119849571.027 7      1052.349    22396774.980    93216406.165 7       818.494    22396775.200    93216404.168 7       818.494
R02  23659285.880   126250491.435 6     -1146.408    23659285.120   126250491.412 6     -1146.408    23659299.800    98194873.829 7      -891.651    23659300.180    98194875.837 7      -891.651
G04  22399295.240   117709094.486 7      5613.231    22399294.260   117709094.499 5      5613.231    22399306.200    91721420.773 5      4373.946    22399306.480    91721428.784 8      4373.946
R16  23410449.860   125054407.346 6      -419.060    23410447.880   125054407.342 6      -419.060    23410472.620    97264621.267 7      -325.936    23410473.220    97264622.258 7      -325.936
G09  24188276.860   127110269.965 6      6262.160    24188275.740   127110269.964 6      6262.160    24188304.320    99047043.075 6      4879.605    24188304.420    99047083.088 7      4879.605
> 2025 04 04 17 46  5.0000000  0 14
G02  22803684.060   119834161.852 7      1510.685    22803682.720   119834161.865 6      1510.685    22803688.320    93377287.871 6      1177.157
G03  20026476.540   105239840.747 8      1851.500    20026476.020   105239840.749 8      1851.500    20026482.100    82005094.388 8      1442.727    20026482.900    82005099.393 8      1442.727
G14  22234420.220   116842647.851 5      2104.303    22234419.100   116842647.861 2      2104.303    22234427.240    91046238.999 2      1639.717    22234427.840    91046267.989 6      1639.717
R03  19877868.020   106407782.221 8      1643.140    19877868.260   106407782.241 7      1643.140    19877878.420    82761653.041 8      1277.998    19877878.600    82761652.042 8      1277.998
G01  21253591.520   111688372.282 7      2034.967    21253590.660   111688372.287 6      2034.967    21253595.760    87029919.109 6      1585.688    21253596.260    87029920.115 8      1585.688
R04  20039239.900   107309220.461 7      5608.625    20039241.780   107309220.508 7      5608.625    20039253.060    83462787.065 8      4362.264    20039252.960    83462787.069 8      4362.264
R18  20427928.360   109045660.317 7      3022.540    20427927.940   109045660.315 7      3022.540    20427938.180    84813336.506 8      2350.864    20427938.240    84813338.510 8      2350.864
G17  22421794.080   117827326.294 7      5359.712    22421792.940   117827326.294 6      5359.712    22421798.600    91813518.153 6      4176.399    22421799.520    91813520.160 7      4176.399
G08  22783162.440   119726316.395 7      -201.961    22783161.400   119726316.398 7      -201.961    22783174.920    93293283.240 7      -157.373    22783175.640    93293288.256 7      -157.373
R17  22396561.040   119848518.741 7      1052.234    22396561.020   119848518.761 7      1052.234    22396578.440    93215587.728 7       818.404    22396578.600    93215585.730 7       818.404
R02  23659500.520   126251637.795 6     -1146.528    23659500.360   126251637.802 6     -1146.528    23659514.380    98195765.468 7      -891.744    23659515.060    98195767.476 7      -891.744
G04  22398227.160   117703481.498 7      5612.988    22398226.300   117703481.509 5      5612.988    22398238.120    91717047.031 5      4373.757    22398238.400    91717055.046 8      4373.757
R16  23410528.740   125054826.473 6      -419.071    23410526.000   125054826.450 6      -419.071    23410550.840    97264947.221 7      -325.944    23410551.620    97264948.215 7      -325.944
G09  24187085.520   127104007.755 6      6262.314    24187084.140   127104007.752 6      6262.314    24187113.120    99042163.451 6      4879.725    24187113.340    99042203.468 7      4879.725
> 2025 04 04 17 46  6.0000000  0 14
G02  22803396.720   119832651.116 7      1510.493    22803395.320   119832651.131 6      1510.493    22803401.000    93376110.676 6      1177.007
G03  20026124.160   105237989.359 8      1850.987    20026123.800   105237989.369 8      1850.987    20026129.820    82003651.758 8      1442.328    20026130.580    82003656.760 8      1442.328
G14  22234019.460   116840543.666 5      2103.827    22234018.540   116840543.676 2      2103.827    22234026.880    91044599.375 2      1639.345    22234028.060    91044628.389 6      1639.345
R03  19877561.080   106406139.396 7      1642.200    19877561.080   106406139.416 7      1642.200    19877571.560    82760375.293 8      1277.266    19877571.540    82760374.294 8      1277.266
G01  21253204.440   111686337.304 7      2034.752    21253203.260   111686337.312 6      2034.752    21253208.380    87028333.420 6      1585.521    21253209.000    87028334.421 8      1585.521
R04  20038192.620   107303612.096 8      5607.849    20038194.500   107303612.152 7      5607.849    20038205.820    83458425.022 8      4361.660    20038205.800    83458425.029 8      4361.660
R18  20427362.100   109042637.823 7      3022.110    20427361.840   109042637.821 7      3022.110    20427371.840    84810985.681 8      2350.530    20427372.000    84810987.686 8      2350.530
G17  22420774.060   117821966.570 7      5359.445    22420773.000   117821966.573 6      5359.445    22420778.700    91809341.749 6      4176.191    22420779.360    91809343.760 7      4176.191
G08  22783201.160   119726518.486 7      -202.475    22783199.820   119726518.493 7      -202.475    22783213.440    93293440.706 7      -157.773    22783214.320    93293445.729 7      -157.773
R17  22396364.200   119847466.526 7      1052.001    22396364.360   119847466.549 7      1052.001    22396381.820    93214769.334 7       818.223    22396382.100    93214767.339 7       818.223
R02  23659715.040   126252784.255 6     -1146.836    23659714.780   126252784.242 6     -1146.836    23659729.140    98196657.146 7      -891.984    23659730.080    98196659.154 7      -891.984
G04  22397159.180   117697868.519 7      5612.664    22397158.060   117697868.526 5      5612.664    22397170.020    91712673.293 5      4373.504    22397170.300    91712681.304 7      4373.504
R16  23410607.080   125055245.451 6      -419.180    23410604.100   125055245.415 6      -419.180    23410629.720    97265273.057 6      -326.029    23410630.180    97265274.049 7      -326.029
G09  24185893.880   127097745.260 6      6262.386    24185892.620   127097745.257 6      6262.386    24185922.020    99037283.631 6      4879.781    24185922.060    99037323.650 7      4879.781
> 2025 04 04 17 46  7.0000000  0 14
G02  22803108.960   119831140.498 7      1510.517    22803107.880   119831140.513 6      1510.517    22803113.360    93374933.571 6      1177.026
G03  20025771.920   105236138.506 8      1850.603    20025771.560   105236138.514 8      1850.603    20025777.640    82002209.538 8      1442.028    20025778.340    82002214.540 8      1442.028
G14  22233619.080   116838440.110 6      2103.541    22233618.220   116838440.122 2      2103.541    22233626.680    91042960.244 2      1639.123    22233627.620    91042989.238 6      1639.123
R03  19877254.520   106404497.468 7      1641.396    19877254.520   106404497.488 7      1641.396    19877264.820    82759098.239 8      1276.641    19877265.180    82759097.238 8      1276.641
G01  21252817.120   111684302.491 7      2034.697    21252816.140   111684302.499 6      2034.697    21252821.240    87026747.852 6      1585.478    21252821.840    87026748.859 8      1585.478
R04  20037145.280   107298004.482 8      5607.254    20037147.520   107298004.529 7      5607.254    20037158.700    83454063.546 8      4361.198    20037158.260    83454063.551 8      4361.198
R18  20426795.760   109039615.561 7      3022.181    20426795.380   109039615.562 7      3022.181    20426805.580    84808635.035 8      2350.586    20426805.780    84808637.042 8      2350.586
G17  22419753.980   117816607.083 7      5359.365    22419753.120   117816607.083 6      5359.365    22419758.780    91805165.530 6      4176.129    22419759.300    91805167.536 7      4176.129
G08  22783239.840   119726720.878 7      -202.610    22783238.360   119726720.886 7      -202.610    22783252.060    93293598.413 7      -157.878    22783253.040    93293603.427 7      -157.878
R17  22396167.740   119846414.696 6      1051.619    22396167.980   119846414.714 7      1051.619    22396185.380    93213951.236 7       817.926    22396185.420    93213949.237 7       817.926
R02  23659930.880   126253931.042 6     -1147.066    23659929.440   126253931.025 6     -1147.066    23659943.780    98197549.090 7      -892.163    23659944.660    98197551.100 7      -892.163
G04  22396091.060   117692255.802 7      5612.595    22396089.960   117692255.810 5      5612.595    22396101.920    91708299.759 5      4373.451    22396102.400    91708307.771 8      4373.451
R16  23410685.600   125055664.511 6      -419.186    23410682.460   125055664.496 6      -419.186    23410707.900    97265598.983 6      -326.033    23410709.100    97265599.977 7      -326.033
G09  24184701.940   127091482.782 6      6262.468    24184701.260   127091482.784 6      6262.468    24184730.420    99032403.819 6      4879.845    24184730.140    99032443.844 7      4879.845
> 2025 04 04 17 46  8.0000000  0 14
G02  22802821.480   119829629.807 7      1510.620    22802820.300   119829629.820 6      1510.620    22802825.980    93373756.409 6      1177.107
G03  20025419.860   105234288.019 8      1850.199    20025419.440   105234288.024 8      1850.199    20025425.520    82000767.600 8      1441.714    20025426.380    82000772.606 8      1441.714
G14  22233219.240   116836337.029 6      2102.724    22233218.120   116836337.039 2      2102.724    22233226.660    91041321.478 2      1638.486    22233227.700    91041350.482 6      1638.486
R03  19876947.800   106402856.254 7      1640.721    19876947.860   106402856.272 7      1640.721    19876958.240    82757821.742 8      1276.116    19876958.300    82757820.741 8      1276.116
G01  21252429.720   111682267.644 7      2034.813    21252429.040   111682267.647 6      2034.813    21252433.900    87025162.255 6      1585.569    21252434.440    87025163.262 8      1585.569
R04  20036098.500   107292397.408 8      5606.686    20036100.300   107292397.458 7      5606.686    20036111.600    83449702.495 8      4360.756    20036111.320    83449702.502 8      4360.756
R18  20426229.220   109036593.395 7      3021.993    20426229.140   109036593.391 7      3021.993    20426239.460    84806284.458 8      2350.439    20426239.560    84806286.464 8      2350.439
G17  22418734.140   117811247.654 7      5359.264    22418733.120   117811247.653 6      5359.264    22418738.940    91800989.355 6      4176.050    22418739.580    91800991.364 7      4176.050
G08  22783278.300   119726923.433 7      -202.886    22783276.960   119726923.444 7      -202.886    22783290.460    93293756.244 7      -158.093    22783291.600    93293761.254 7      -158.093
R17  22395971.500   119845362.984 7      1051.497    22395971.180   119845363.004 7      1051.497    22395988.900    93213133.230 7       817.831    22395988.640    93213131.239 7       817.831
R02  23660145.620   126255077.998 6     -1147.160    23660144.500   126255077.999 6     -1147.160    23660158.940    98198441.171 7      -892.235    23660159.680    98198443.185 7      -892.235
G04  22395023.020   117686643.206 7      5612.333    22395021.800   117686643.214 5      5612.333    22395033.780    91703926.318 5      4373.247    22395034.160    91703934.332 8      4373.247
R16  23410764.360   125056083.486 6      -419.011    23410760.860   125056083.474 6      -419.011    23410786.620    97265924.823 6      -325.898    23410787.400    97265925.825 7      -325.898
G09  24183510.540   127085220.141 6      6262.608    24183509.480   127085220.135 6      6262.608    24183538.360    99027523.865 6      4879.954    24183538.400    99027563.886 7      4879.954
> 2025 04 04 17 46  9.0000000  0 14
G02  22802534.140   119828119.302 7      1510.402    22802532.840   119828119.315 6      1510.402    22802538.480    93372579.393 6      1176.937
G03  20025067.860   105232438.110 8      1849.605    20025067.420   105232438.118 8      1849.605    20025073.460    81999326.118 8      1441.251    20025074.160    81999331.116 8      1441.251
G14  22232819.340   116834234.544 6      2102.088    22232818.040   116834234.554 2      2102.088    22232826.520    91039683.182 2      1637.991    22232827.120    91039712.178 6      1637.991
R03  19876641.540   106401216.020 7      1639.727    19876641.620   106401216.035 7      1639.727    19876651.900    82756546.007 8      1275.343    19876652.080    82756545.005 8      1275.343
G01  21252042.600   111680233.042 7      2034.429    21252041.780   111680233.047 6      2034.429    21252046.840    87023576.856 6      1585.269    21252047.180    87023577.862 8      1585.269
R04  20035051.760   107286791.145 8      5605.847    20035053.360   107286791.190 7      5605.847    20035064.700    83445342.075 8      4360.103    20035064.600    83445342.079 8      4360.103
R18  20425663.600   109033571.542 7      3021.668    20425663.340   109033571.537 7      3021.668    20425673.360    84803934.131 8      2350.186    20425673.620    84803936.138 8      2350.186
G17  22417714.420   117805888.529 7      5358.884    22417713.360   117805888.531 6      5358.884    22417719.140    91796813.422 5      4175.753    22417719.880    91796815.433 7      4175.753
G08  22783317.000   119727126.351 7      -203.224    22783315.460   119727126.359 7      -203.224    22783329.300    93293914.354 7      -158.357    22783330.040    93293919.362 7      -158.357
R17  22395775.040   119844311.684 7      1051.101    22395774.740   119844311.705 7      1051.101    22395792.900    93212315.554 7       817.523    22395792.480    93212313.557 7       817.523
R02  23660360.520   126256225.415 6     -1147.443    23660360.100   126256225.400 6     -1147.443    23660373.920    98199333.600 7      -892.456    23660374.700    98199335.610 7      -892.456
G04  22393955.080   117681030.920 7      5612.068    22393953.940   117681030.930 5      5612.068    22393965.760    91699553.123 5      4373.040    22393966.120    91699561.138 7      4373.040
R16  23410842.860   125056502.643 6      -419.256    23410839.620   125056502.639 6      -419.256    23410864.760    97266250.803 6      -326.088    23410865.920    97266251.797 7      -326.088
G09  24182318.820   127078957.484 6      6262.715    24182317.700   127078957.486 6      6262.715    24182345.940    99022643.897 6      4880.038    24182346.380    99022683.916 7      4880.038
> 2025 04 04 17 46 10.0000000  0 14
G02  22802246.680   119826608.958 7      1510.345    22802245.340   119826608.968 6      1510.345    22802251.040    93371402.501 6      1176.892
G03  20024715.880   105230588.792 8      1849.096    20024715.440   105230588.800 8      1849.096    20024721.640    81997885.095 8      1440.854    20024722.440    81997890.097 8      1440.854
G14  22232419.420   116832132.714 6      2101.444    22232417.920   116832132.721 2      2101.444    22232426.600    91038045.396 2      1637.489    22232428.080    91038074.413 6      1637.489
R03  19876335.280   106399576.744 8      1638.903    19876335.380   106399576.759 7      1638.903    19876345.700    82755271.018 8      1274.703    19876345.600    82755270.021 8      1274.703
G01  21251655.400   111678198.618 7      2034.409    21251654.660   111678198.623 6      2034.409    21251659.740    87021991.593 6      1585.254    21251660.000    87021992.600 8      1585.254
R04  20034004.960   107281185.637 8      5605.153    20034006.420   107281185.682 7      5605.153    20034017.900    83440982.246 8      4359.564    20034017.840    83440982.250 8      4359.564
R18  20425097.340   109030550.048 7      3021.317    20425097.220   109030550.041 7      3021.317    20425107.340    84801584.085 8      2349.913    20425107.340    84801586.093 8      2349.913
G17  22416694.700   117800529.665 7      5358.808    22416693.660   117800529.667 6      5358.808    22416699.280    91792637.688 6      4175.695    22416699.940    91792639.698 7      4175.695
G08  22783355.560   119727329.635 7      -203.392    22783354.060   119727329.642 7      -203.392    22783367.960    93294072.748 7      -158.487    22783368.500    93294077.766 7      -158.487
R17  22395579.120   119843260.732 7      1050.771    22395578.180   119843260.750 7      1050.771    22395596.180    93211498.133 7       817.266    22395596.360    93211496.131 7       817.266
R02  23660575.280   126257373.278 6     -1148.189    23660574.140   126257373.263 6     -1148.189    23660588.820    98200226.397 7      -893.036    23660589.620    98200228.409 7      -893.036
G04  22392887.100   117675418.984 7      5611.802    22392886.000   117675418.994 5      5611.802    22392897.800    91695180.201 5      4372.832    22392898.160    91695188.207 8      4372.832
R16  23410920.880   125056921.989 6      -419.350    23410917.460   125056921.982 6      -419.350    23410943.540    97266576.913 6      -326.161    23410944.260    97266577.911 7      -326.161
G09  24181127.000   127072694.956 6      6262.540    24181125.700   127072694.953 6      6262.540    24181154.060    99017764.028 6      4879.901    24181154.520    99017804.036 7      4879.901
> 2025 04 04 17 46 11.0000000  0 14
G02  22801959.260   119825098.377 7      1510.470    22801957.780   119825098.384 6      1510.470    22801963.560    93370225.423 6      1176.989
G03  20024363.980   105228739.645 8      1848.857    20024363.500   105228739.650 8      1848.857    20024369.700    81996444.206 8      1440.668    20024370.340    81996449.206 8      1440.668
G14  22232020.040   116830031.139 6      2101.021    22232017.880   116830031.149 2      2101.021    22232026.780    91036407.803 2      1637.159    22232027.460    91036436.811 6      1637.159
R03  19876029.160   106397938.020 7      1638.216    19876029.180   106397938.048 7      1638.216    19876039.580    82753996.465 8      1274.168    19876039.900    82753995.468 8      1274.168
G01  21251268.380   111676164.015 7      2034.515    21251267.520   111676164.020 6      2034.515    21251272.660    87020406.196 6      1585.337    21251273.120    87020407.200 8      1585.337
R04  20032958.260   107275580.483 8      5604.697    20032959.820   107275580.517 7      5604.697    20032971.360    83436622.682 8      4359.209    20032971.020    83436622.684 8      4359.209
R18  20424531.440   109027528.462 7      3021.394    20424530.960   109027528.455 7      3021.394    20424541.300    84799233.960 8      2349.973    20424541.360    84799235.968 8      2349.973
G17  22415674.760   117795170.708 7      5358.795    22415673.860   117795170.711 6      5358.795    22415679.460    91788461.886 6      4175.684    22415679.860    91788463.894 7      4175.684
G08  22783394.260   119727532.894 7      -203.363    22783392.960   119727532.899 7      -203.363    22783406.640    93294231.124 7      -158.464    22783406.840    93294236.138 7      -158.464
R17  22395382.880   119842209.700 7      1050.690    22395381.760   119842209.710 7      1050.690    22395399.780    93210680.651 7       817.203    22395399.700    93210678.651 7       817.203
R02  23660790.240   126258520.968 6     -1147.841    23660789.820   126258520.968 6     -1147.841    23660803.900    98201119.030 7      -892.765    23660804.800    98201121.046 7      -892.765
G04  22391819.100   117669806.953 7      5611.888    22391817.920   117669806.958 5      5611.888    22391829.940    91690807.200 5      4372.899    22391830.140    91690815.208 8      4372.899
R16  23410999.620   125057341.092 6      -419.314    23410995.860   125057341.067 6      -419.314    23411022.160    97266902.855 7      -326.133    23411023.060    97266903.849 7      -326.133
G09  24179935.060   127066432.015 6      6263.003    24179934.200   127066432.004 6      6263.003    24179962.200    99012883.837 6      4880.262    24179962.780    99012923.849 7      4880.262
> 2025 04 04 17 46 12.0000000  0 14
G02  22801672.000   119823587.980 7      1510.441    22801670.420   119823587.990 6      1510.441    22801676.160    93369048.492 6      1176.967
G03  20024012.360   105226891.121 8      1848.353    20024011.780   105226891.128 8      1848.353    20024017.840    81995003.799 8      1440.275    20024018.680    81995008.801 8      1440.275
G14  22231619.720   116827930.228 6      2100.526    22231618.200   116827930.243 2      2100.526    22231627.020    91034770.732 2      1636.774    22231627.240    91034799.742 6      1636.774
R03  19875722.940   106396300.278 7      1637.416    19875723.160   106396300.303 7      1637.416    19875733.580    82752722.666 8      1273.546    19875733.720    82752721.669 8      1273.546
G01  21250881.180   111674129.654 7      2034.450    21250880.380   111674129.659 6      2034.450    21250885.520    87018820.976 6      1585.286    21250885.980    87018821.977 8      1585.286
R04  20031911.520   107269976.122 8      5604.049    20031912.780   107269976.166 7      5604.049    20031924.840    83432263.748 8      4358.705    20031924.520    83432263.757 8      4358.705
R18  20423965.440   109024507.252 7      3021.096    20423965.360   109024507.250 7      3021.096    20423975.420    84796884.134 8      2349.742    20423975.420    84796886.142 8      2349.742
G17  22414655.240   117789812.054 7      5358.645    22414654.100   117789812.059 6      5358.645    22414659.840    91784286.317 6      4175.567    22414660.340    91784288.324 7      4175.567
G08  22783432.960   119727736.556 7      -203.661    22783431.780   119727736.563 7      -203.661    22783445.500    93294389.815 7      -158.697    22783446.260    93294394.827 7      -158.697
R17  22395186.000   119841159.080 7      1050.537    22395185.480   119841159.081 7      1050.537    22395203.620    93209863.487 7       817.084    22395203.600    93209861.487 7       817.084
R02  23661005.860   126259669.087 6     -1148.326    23661005.820   126259669.074 6     -1148.326    23661018.660    98202012.034 7      -893.142    23661019.520    98202014.050 7      -893.142
G04  22390751.320   117664195.279 7      5611.634    22390750.080   117664195.286 5      5611.634    22390762.040    91686434.484 5      4372.702    22390762.380    91686442.494 7      4372.702
R16  23411078.260   125057760.351 6      -419.173    23411074.180   125057760.325 6      -419.173    23411100.040    97267228.939 6      -326.023    23411101.540    97267229.935 6      -326.023
G09  24178743.120   127060169.127 6      6263.056    24178742.140   127060169.113 6      6263.056    24178770.660    99008003.701 6      4880.304    24178771.040    99008043.720 7      4880.304
> 2025 04 04 17 46 13.0000000  0 14
G02  22801384.280   119822077.695 7      1510.318    22801382.900   119822077.703 6      1510.318    22801388.800    93367871.643 6      1176.871
G03  20023660.620   105225043.093 8      1847.832    20023660.060   105225043.100 8      1847.832    20023666.220    81993563.777 8      1439.869    20023667.160    81993568.779 8      1439.869
G14  22231220.220   116825829.861 6      2100.172    22231218.500   116825829.874 2      2100.172    22231227.400    91033134.080 2      1636.497    22231227.780    91033163.095 6      1636.497
R03  19875417.120   106394663.389 7      1636.573    19875417.600   106394663.407 7      1636.573    19875427.840    82751449.530 8      1272.890    19875427.860    82751448.533 8      1272.890
G01  21250493.900   111672095.414 7      2034.274    21250493.260   111672095.417 6      2034.274    21250498.500    87017235.850 6      1585.148    21250498.760    87017236.855 8      1585.148
R04  20030864.980   107264372.480 8      5603.347    20030866.320   107264372.525 7      5603.347    20030878.440    83427905.369 8      4358.159    20030877.980    83427905.371 8      4358.159
R18  20423399.440   109021486.244 7      3020.947    20423399.440   109021486.242 7      3020.947    20423409.540    84794534.460 8      2349.625    20423409.620    84794536.466 8      2349.625
G17  22413635.480   117784453.618 7      5358.340    22413634.560   117784453.618 6      5358.340    22413640.260    91780110.914 6      4175.330    22413640.760    91780112.919 7      4175.330
G08  22783471.820   119727940.517 7      -204.032    22783470.340   119727940.527 7      -204.032    22783484.380    93294548.744 7      -158.986    22783484.960    93294553.752 7      -158.986
R17  22394989.540   119840108.727 6      1050.343    22394988.740   119840108.750 7      1050.343    22395007.080    93209046.561 7       816.933    22395007.240    93209044.559 7       816.933
R02  23661221.260   126260817.491 6     -1148.521    23661220.320   126260817.473 6     -1148.521    23661234.440    98202905.217 7      -893.294    23661234.720    98202907.228 7      -893.294
G04  22389683.400   117658583.868 7      5611.406    22389682.320   117658583.876 5      5611.406    22389694.120    91682061.966 5      4372.524    22389694.540    91682069.970 7      4372.524
R16  23411156.780   125058179.718 6      -419.264    23411152.140   125058179.698 6      -419.264    23411178.860    97267555.085 6      -326.094    23411179.880    97267556.082 7      -326.094
G09  24177551.160   127053906.220 6      6263.018    24177550.000   127053906.209 6      6263.018    24177579.060    99003123.547 6      4880.274    24177579.360    99003163.568 7      4880.274
> 2025 04 04 17 46 14.0000000  0 14
G02  22801096.820   119820567.435 7      1510.212    22801095.540   119820567.443 6      1510.212    22801101.420    93366694.817 6      1176.789
G03  20023308.960   105223195.517 8      1847.330    20023308.400   105223195.522 8      1847.330    20023314.640    81992124.110 8      1439.478    20023315.600    81992129.110 8      1439.478
G14  22230820.040   116823730.041 5      2099.647    22230818.900   116823730.051 2      2099.647    22230827.760    91031497.859 2      1636.088    22230828.120    91031526.861 6      1636.088
R03  19875111.560   106393027.317 8      1635.685    19875111.960   106393027.343 7      1635.685    19875122.120    82750177.038 8      1272.200    19875122.140    82750176.046 8      1272.200
G01  21250106.900   111670061.277 7      2034.002    21250106.060   111670061.282 6      2034.002    21250111.460    87015650.814 6      1584.936    21250111.640    87015651.819 8      1584.936
R04  20029818.800   107258769.498 8      5602.639    20029819.880   107258769.548 7      5602.639    20029832.060    83423547.504 8      4357.608    20029831.720    83423547.506 8      4357.608
R18  20422833.600   109018465.439 7      3020.624    20422833.400   109018465.438 7      3020.624    20422843.560    84792184.951 8      2349.374    20422843.740    84792186.961 8      2349.374
G17  22412615.900   117779095.329 7      5358.170    22412614.900   117779095.328 6      5358.170    22412620.440    91775935.626 6      4175.197    22412621.200    91775937.631 7      4175.197
G08  22783510.380   119728144.714 7      -204.262    22783509.340   119728144.719 7      -204.262    22783523.280    93294707.846 7      -159.165    22783523.540    93294712.861 7      -159.165
R17  22394793.440   119839058.741 7      1049.783    22394793.300   119839058.756 7      1049.783    22394810.840    93208229.892 7       816.498    22394810.940    93208227.891 7       816.498
R02  23661436.160   126261966.136 6     -1148.813    23661435.680   126261966.126 6     -1148.813    23661449.420    98203798.619 7      -893.522    23661449.840    98203800.627 7      -893.522
G04  22388615.840   117652972.649 7      5611.133    22388614.640   117652972.656 5      5611.133    22388626.280    91677689.600 5      4372.311    22388626.440    91677697.606 7      4372.311
R16  23411234.520   125058599.129 6      -419.530    23411230.800   125058599.132 6      -419.530    23411257.600    97267881.284 6      -326.301    23411258.340    97267882.286 7      -326.301
G09  24176359.640   127047643.206 6      6263.092    24176358.360   127047643.211 6      6263.092    24176387.140    98998243.325 6      4880.331    24176387.100    98998283.348 7      4880.331
> 2025 04 04 17 46 15.0000000  0 14
G02  22800809.540   119819057.314 7      1509.957    22800808.040   119819057.321 6      1509.957    22800814.060    93365518.101 6      1176.590
G03  20022957.680   105221348.498 8      1846.705    20022956.980   105221348.506 8      1846.705    20022963.140    81990684.881 8      1438.991    20022964.040    81990689.883 8      1438.991
G14  22230420.740   116821630.867 5      2098.957    22230419.780   116821630.880 2      2098.957    22230428.280    91029862.139 2      1635.551    22230428.320    91029891.116 6      1635.551
R03  19874806.280   106391392.190 7      1634.620    19874806.560   106391392.208 7      1634.620    19874816.680    82748905.271 8      1271.371    19874816.820    82748904.274 8      1271.371
G01  21249719.980   111668027.289 7      2033.892    21249719.060   111668027.294 6      2033.892    21249724.300    87014065.890 6      1584.851    21249724.620    87014066.894 8      1584.851
R04  20028772.560   107253167.251 8      5601.833    20028773.740   107253167.301 7      5601.833    20028785.880    83419190.214 8      4356.981    20028785.480    83419190.218 8      4356.981
R18  20422267.660   109015444.928 7      3020.375    20422267.340   109015444.921 7      3020.375    20422277.660    84789835.665 8      2349.180    20422277.800    84789837.671 8      2349.180
G17  22411596.360   117773737.295 7      5357.761    22411595.340   117773737.297 6      5357.761    22411600.880    91771760.541 6      4174.878    22411601.600    91771762.554 7      4174.878
G08  22783549.300   119728349.261 7      -204.753    22783548.280   119728349.274 7      -204.753    22783562.160    93294867.231 7      -159.548    22783562.840    93294872.244 7      -159.548
R17  22394597.100   119838009.047 7      1049.557    22394597.020   119838009.048 7      1049.557    22394614.740    93207413.447 7       816.322    22394614.960    93207411.445 7       816.322
R02  23661651.820   126263115.159 6     -1149.166    23661651.000   126263115.152 6     -1149.166    23661664.600    98204692.300 7      -893.796    23661665.200    98204694.310 7      -893.796
G04  22387547.800   117647361.729 7      5610.719    22387546.760   117647361.734 5      5610.719    22387558.540    91673317.467 5      4371.989    22387559.160    91673325.481 7      4371.989
R16  23411313.460   125059018.702 6      -419.740    23411309.620   125059018.703 6      -419.740    23411336.580    97268207.586 6      -326.464    23411336.980    97268208.586 7      -326.464
G09  24175168.080   127041380.273 6      6262.715    24175166.760   127041380.270 6      6262.715    24175195.180    98993363.142 6      4880.038    24175195.260    98993403.159 7      4880.038
> 2025 04 04 17 46 16.0000000  0 14
G02  22800522.240   119817547.316 7      1509.882    22800520.720   119817547.324 6      1509.882    22800526.660    93364341.476 5      1176.531
G03  20022606.480   105219502.026 8      1846.111    20022605.460   105219502.028 8      1846.111    20022611.840    81989246.069 8      1438.528    20022612.600    81989251.071 8      1438.528
G14  22230021.360   116819532.248 5      2098.294    22230020.360   116819532.260 2      2098.294    22230029.040    91028226.849 2      1635.034    22230028.540    91028255.849 6      1635.034
R03  19874500.860   106389757.954 8      1633.770    19874501.160   106389757.974 7      1633.770    19874511.400    82747634.202 8      1270.710    19874511.480    82747633.205 8      1270.710
G01  21249332.740   111665993.485 7      2033.732    21249332.020   111665993.493 6      2033.732    21249337.200    87012481.112 6      1584.726    21249337.540    87012482.114 8      1584.726
R04  20027726.460   107247565.763 8      5601.118    20027727.300   107247565.804 7      5601.118    20027739.840    83414833.509 8      4356.425    20027739.520    83414833.513 8      4356.425
R18  20421701.980   109012424.730 7      3020.069    20421701.680   109012424.725 7      3020.069    20421711.880    84787486.627 8      2348.942    20421712.080    84787488.634 8      2348.942
G17  22410576.960   117768379.494 7      5357.671    22410575.740   117768379.494 6      5357.671    22410581.360    91767585.638 6      4174.809    22410582.000    91767587.640 7      4174.809
G08  22783588.320   119728554.129 7      -205.046    22783587.160   119728554.142 7      -205.046    22783601.200    93295026.858 7      -159.776    22783601.760    93295031.871 7      -159.776
R17  22394401.160   119836959.676 7      1049.195    22394400.920   119836959.680 7      1049.195    22394418.580    93206597.265 7       816.041    22394418.620    93206595.261 7       816.041
R02  23661867.180   126264264.556 6     -1149.502    23661866.580   126264264.560 6     -1149.502    23661880.120    98205586.286 7      -894.057    23661880.540    98205588.292 7      -894.057
G04  22386480.240   117641751.083 7      5610.518    22386479.160   117641751.090 5      5610.518    22386490.860    91668945.543 5      4371.832    22386491.520    91668953.555 8      4371.832
R16  23411391.540   125059438.387 6      -419.787    23411388.300   125059438.391 6      -419.787    23411415.320    97268533.981 6      -326.501    23411415.680    97268534.972 7      -326.501
G09  24173975.980   127035117.248 6      6263.080    24173975.020   127035117.245 6      6263.080    24174003.320    98988482.885 6      4880.322    24174003.220    98988522.894 7      4880.322
> 2025 04 04 17 46 17.0000000  0 14
G02  22800235.120   119816037.468 7      1509.745    22800233.280   119816037.478 5      1509.745    22800239.440    93363164.973 5      1176.425
G03  20022255.140   105217656.095 8      1845.670    20022254.280   105217656.100 8      1845.670    20022260.540    81987807.685 8      1438.185    20022261.300    81987812.685 8      1438.185
G14  22229622.320   116817434.296 5      2097.597    22229621.080   116817434.308 2      2097.597    22229629.760    91026592.083 2      1634.491    22229629.020    91026621.079 6      1634.491
R03  19874195.680   106388124.698 7      1632.722    19874196.140   106388124.721 7      1632.722    19874206.320    82746363.896 8      1269.895    19874206.440    82746362.899 8      1269.895
G01  21248945.720   111663959.889 7      2033.455    21248944.940   111663959.894 6      2033.455    21248950.280    87010896.492 6      1584.511    21248950.720    87010897.495 8      1584.511
R04  20026680.420   107241965.042 8      5600.294    20026681.280   107241965.076 7      5600.294    20026694.060    83410477.395 8      4355.784    20026693.640    83410477.397 8      4355.784
R18  20421136.300   109009404.870 7      3019.605    20421135.900   109009404.865 7      3019.605    20421146.260    84785137.848 8      2348.582    20421146.400    84785139.852 8      2348.582
G17  22409557.240   117763021.983 7      5357.364    22409556.260   117763021.985 6      5357.364    22409561.860    91763410.960 6      4174.569    22409562.620    91763412.962 7      4174.569
G08  22783627.300   119728759.359 7      -205.389    22783626.340   119728759.366 7      -205.389    22783640.240    93295186.770 7      -160.043    22783640.980    93295191.778 7      -160.043
R17  22394205.000   119835910.632 7      1048.890    22394204.720   119835910.641 6      1048.890    22394222.340    93205781.334 7       815.803    22394222.640    93205779.332 7       815.803
R02  23662082.820   126265414.369 6     -1149.982    23662082.260   126265414.368 6     -1149.982    23662095.540    98206480.579 7      -894.430    23662095.860    98206482.582 7      -894.430
G04  22385412.260   117636140.765 7      5610.154    22385411.520   117636140.775 5      5610.154    22385423.180    91664573.881 5      4371.549    22385423.760    91664581.897 8      4371.549
R16  23411470.960   125059858.268 6      -420.024    23411466.880   125059858.250 6      -420.024    23411493.460    97268860.509 6      -326.685    23411494.460    97268861.494 7      -326.685
G09  24172784.080   127028854.297 6      6262.929    24172783.440   127028854.299 6      6262.929    24172811.760    98983602.694 6      4880.204    24172811.960    98983642.715 7      4880.204
> 2025 04 04 17 46 18.0000000  0 14
G02  22799947.840   119814527.699 7      1509.573    22799945.880   119814527.709 5      1509.573    22799952.100    93361988.531 5      1176.291
G03  20021903.660   105215810.676 8      1845.115    20021903.040   105215810.678 8      1845.115    20021909.420    81986369.699 8      1437.752    20021910.120    81986374.699 8      1437.752
G14  22229223.000   116815336.877 5      2097.004    22229221.960   116815336.887 2      2097.004    22229230.600    91024957.731 2      1634.029    22229230.160    91024986.727 6      1634.029
R03  19873890.480   106386492.285 7      1631.888    19873890.980   106386492.310 7      1631.888    19873901.440    82745094.246 8      1269.246    19873901.280    82745093.249 8      1269.246
G01  21248558.940   111661926.390 7      2033.308    21248558.020   111661926.398 6      2033.308    21248563.280    87009311.953 6      1584.396    21248563.620    87009312.952 8      1584.396
R04  20025634.980   107236364.965 8      5599.672    20025635.180   107236364.999 7      5599.672    20025648.240    83406121.792 8      4355.300    20025647.920    83406121.794 8      4355.300
R18  20420570.580   109006385.184 7      3019.438    20420570.080   109006385.179 7      3019.438    20420580.600    84782789.205 8      2348.452    20420580.440    84782791.209 8      2348.452
G17  22408537.760   117757664.648 7      5357.153    22408536.780   117757664.650 6      5357.153    22408542.460    91759236.417 6      4174.405    22408543.180    91759238.423 7      4174.405
G08  22783666.480   119728964.873 7      -205.774    22783665.460   119728964.883 7      -205.774    22783679.360    93295346.902 7      -160.343    22783679.940    93295351.912 7      -160.343
R17  22394009.320   119834861.871 7      1048.542    22394009.000   119834861.889 7      1048.542    22394026.320    93204965.629 7       815.532    22394026.920    93204963.629 7       815.532
R02  23662297.880   126266564.444 6     -1150.257    23662297.640   126266564.440 6     -1150.257    23662310.720    98207375.079 7      -894.644    23662311.480    98207377.087 7      -894.644
G04  22384345.060   117630530.673 7      5609.946    22384343.980   117630530.681 5      5609.946    22384355.700    91660202.397 5      4371.387    22384356.180    91660210.403 7      4371.387
R16  23411549.820   125060278.183 6      -420.098    23411545.500   125060278.165 6      -420.098    23411572.000    97269187.083 6      -326.743    23411573.180    97269188.062 7      -326.743
G09  24171591.940   127022591.288 6      6262.960    24171591.260   127022591.287 6      6262.960    24171620.080    98978722.458 6      4880.228    24171620.240    98978762.477 7      4880.228
> 2025 04 04 17 46 19.0000000  0 14
G02  22799660.420   119813018.035 7      1509.777    22799658.500   119813018.045 5      1509.777    22799664.780    93360812.168 5      1176.450
G03  20021552.840   105213965.785 8      1844.735    20021551.960   105213965.793 8      1844.735    20021558.280    81984932.132 8      1437.456    20021558.860    81984937.132 8      1437.456
G14  22228823.580   116813240.073 5      2096.618    22228822.920   116813240.081 2      2096.618    22228831.540    91023323.858 2      1633.728    22228832.020    91023352.852 6      1633.728
R03  19873585.660   106384860.787 7      1631.234    19873586.520   106384860.818 7      1631.234    19873596.680    82743825.309 8      1268.737    19873596.540    82743824.314 8      1268.737
G01  21248171.840   111659893.057 7      2033.439    21248171.040   111659893.064 6      2033.439    21248176.460    87007727.535 6      1584.498    21248176.620    87007728.545 8      1584.498
R04  20024589.260   107230765.647 7      5599.087    20024589.340   107230765.687 7      5599.087    20024602.740    83401766.780 8      4354.846    20024602.340    83401766.780 8      4354.846
R18  20420004.920   109003365.764 7      3019.478    20420004.540   109003365.762 7      3019.478    20420014.880    84780440.774 8      2348.483    20420014.780    84780442.776 8      2348.483
G17  22407518.400   117752307.557 7      5357.197    22407517.380   117752307.562 6      5357.197    22407522.980    91755062.068 6      4174.439    22407523.140    91755064.079 7      4174.439
G08  22783705.700   119729170.699 7      -205.837    22783704.620   119729170.710 7      -205.837    22783718.500    93295507.278 7      -160.393    22783719.320    93295512.287 7      -160.393
R17  22393813.940   119833813.477 7      1048.368    22393813.980   119833813.486 7      1048.368    22393830.660    93204150.203 7       815.397    22393830.340    93204148.201 7       815.397
R02  23662513.240   126267714.850 6     -1150.397    23662513.420   126267714.837 6     -1150.397    23662526.600    98208269.841 7      -894.753    23662527.240    98208271.847 7      -894.753
G04  22383277.440   117624920.875 7      5609.775    22383276.300   117624920.886 5      5609.775    22383288.280    91655831.139 5      4371.253    22383288.720    91655839.146 8      4371.253
R16  23411628.920   125060698.173 6      -419.910    23411624.280   125060698.177 6      -419.910    23411650.700    97269513.727 6      -326.597    23411651.420    97269514.706 7      -326.597
G09  24170400.580   127016328.281 6      6263.170    24170399.460   127016328.289 6      6263.170    24170428.300    98973842.230 6      4880.392    24170428.460    98973882.247 7      4880.392
> 2025 04 04 17 46 20.0000000  0 14
G02  22799373.320   119811508.408 7      1509.515    22799371.320   119811508.418 5      1509.515    22799377.520    93359635.833 5      1176.245
G03  20021201.720   105212121.336 8      1844.153    20021201.020   105212121.341 8      1844.153    20021207.300    81983494.897 8      1437.002    20021208.140    81983499.895 8      1437.002
G14  22228425.220   116811143.734 6      2096.168    22228424.100   116811143.739 2      2096.168    22228432.640    91021690.347 2      1633.377    22228432.280    91021719.347 6      1633.377
R03  19873281.320   106383230.111 7      1630.147    19873281.840   106383230.131 7      1630.147    19873292.020    82742556.997 8      1267.892    19873292.080    82742555.998 8      1267.892
G01  21247785.040   111657859.797 7      2033.167    21247784.280   111657859.801 6      2033.167    21247789.540    87006143.179 6      1584.286    21247789.560    87006144.185 8      1584.286
R04  20023543.420   107225166.992 7      5598.272    20023544.100   107225167.028 7      5598.272    20023557.280    83397412.272 8      4354.212    20023556.700    83397412.272 8      4354.212
R18  20419439.440   109000346.572 7      3019.012    20419438.860   109000346.565 7      3019.012    20419449.200    84778092.509 8      2348.120    20419449.420    84778094.515 8      2348.120
G17  22406499.200   117746950.632 7      5356.743    22406498.140   117746950.631 6      5356.743    22406503.560    91750887.845 6      4174.085    22406504.220    91750889.845 7      4174.085
G08  22783745.080   119729376.760 7      -206.274    22783743.760   119729376.775 7      -206.274    22783757.860    93295667.839 7      -160.733    22783758.840    93295672.847 7      -160.733
R17  22393617.740   119832765.292 7      1048.021    22393617.940   119832765.309 7      1048.021    22393634.640    93203334.950 7       815.128    22393634.720    93203332.950 7       815.128
R02  23662728.820   126268865.450 6     -1150.828    23662728.900   126268865.451 6     -1150.828    23662742.320    98209164.763 7      -895.088    23662742.740    98209166.767 7      -895.088
G04  22382209.820   117619311.254 7      5609.393    22382208.760   117619311.267 5      5609.393    22382220.660    91651460.017 5      4370.956    22382221.260    91651468.027 8      4370.956
R16  23411707.020   125061118.192 6      -420.172    23411702.560   125061118.207 6      -420.172    23411729.440    97269840.379 6      -326.800    23411730.000    97269841.373 6      -326.800
G09  24169208.260   127010065.159 6      6263.202    24169207.660   127010065.159 6      6263.202    24169236.300    98968961.902 6      4880.417    24169236.300    98969001.915 7      4880.417
> 2025 04 04 17 46 21.0000000  0 14
G02  22799085.960   119809998.818 7      1509.678    22799084.060   119809998.825 5      1509.678    22799090.220    93358459.531 5      1176.373
G03  20020850.820   105210277.344 8      1843.839    20020850.060   105210277.349 8      1843.839    20020856.320    81982058.024 8      1436.758    20020857.040    81982063.026 8      1436.758
G14  22228026.280   116809047.963 6      2095.672    22228025.120   116809047.971 2      2095.672    22228033.700    91020057.277 2      1632.991    22228033.520    91020086.279 6      1632.991
R03  19872976.700   106381600.208 8      1629.664    19872977.140   106381600.231 7      1629.664    19872987.640    82741289.303 8      1267.517    19872987.640    82741288.302 8      1267.517
G01  21247398.160   111655826.629 7      2033.225    21247397.260   111655826.631 6      2033.225    21247402.540    87004558.892 6      1584.331    21247402.800    87004559.902 8      1584.331
R04  20022498.060   107219569.029 8      5597.688    20022498.720   107219569.068 7      5597.688    20022511.780    83393058.317 8      4353.757    20022511.280    83393058.320 8      4353.757
R18  20418873.640   108997327.587 7      3018.992    20418873.340   108997327.580 7      3018.992    20418883.580    84775744.412 8      2348.105    20418883.780    84775746.416 8      2348.105
G17  22405479.820   117741593.843 7      5356.821    22405478.720   117741593.845 6      5356.821    22405484.160    91746713.730 6      4174.146    22405484.940    91746715.737 7      4174.146
G08  22783784.300   119729583.065 7      -206.300    22783783.140   119729583.075 7      -206.300    22783797.120    93295828.586 7      -160.754    22783797.860    93295833.592 7      -160.754
R17  22393421.720   119831717.406 7      1047.855    22393422.260   119831717.423 7      1047.855    22393438.960    93202519.921 7       814.998    22393438.980    93202517.921 7       814.998
R02  23662944.840   126270016.357 6     -1150.984    23662944.440   126270016.350 6     -1150.984    23662957.880    98210059.913 7      -895.210    23662958.320    98210061.917 7      -895.210
G04  22381142.480   117613701.832 7      5609.376    22381141.260   117613701.845 5      5609.376    22381153.240    91647089.051 5      4370.942    22381153.720    91647097.065 7      4370.942
R16  23411785.400   125061538.246 6      -419.845    23411781.460   125061538.250 6      -419.845    23411808.100    97270167.051 6      -326.546    23411808.580    97270168.049 6      -326.546
G09  24168015.980   127003801.985 6      6263.317    24168015.700   127003801.989 6      6263.317    24168044.420    98964081.535 6      4880.507    24168044.660    98964121.538 7      4880.507
> 2025 04 04 17 46 22.0000000  0 14
G02  22798798.560   119808489.222 7      1509.485    22798796.800   119808489.232 5      1509.485    22798803.020    93357283.227 5      1176.222
G03  20020499.960   105208433.770 8      1843.236    20020499.100   105208433.770 8      1843.236    20020505.420    81980621.479 8      1436.288    20020506.220    81980626.479 8      1436.288
G14  22227627.600   116806952.673 6      2095.007    22227626.400   116806952.680 2      2095.007    22227634.900    91018424.581 2      1632.473    22227635.960    91018453.575 6      1632.473
R03  19872672.180   106379971.111 8      1628.596    19872672.560   106379971.139 7      1628.596    19872683.380    82740022.234 8      1266.686    19872683.180    82740021.233 8      1266.686
G01  21247011.420   111653793.490 7      2033.014    21247010.340   111653793.497 6      2033.014    21247015.700    87002974.634 6      1584.167    21247015.880    87002975.640 8      1584.167
R04  20021452.840   107213971.675 8      5596.919    20021453.780   107213971.706 7      5596.919    20021466.620    83388704.824 8      4353.160    20021466.260    83388704.830 8      4353.160
R18  20418308.060   108994308.750 7      3018.601    20418307.700   108994308.748 7      3018.601    20418318.020    84773396.433 8      2347.801    20418318.080    84773398.435 8      2347.801
G17  22404460.440   117736237.183 7      5356.542    22404459.360   117736237.183 6      5356.542    22404464.660    91742539.711 6      4173.929    22404465.660    91742541.712 7      4173.929
G08  22783823.760   119729789.588 7      -206.680    22783822.420   119729789.590 7      -206.680    22783836.400    93295989.500 7      -161.049    22783837.060    93295994.506 7      -161.049
R17  22393225.820   119830669.659 7      1047.593    22393226.600   119830669.674 7      1047.593    22393243.320    93201705.001 7       814.795    22393243.160    93201702.999 7       814.795
R02  23663161.060   126271167.470 6     -1151.232    23663160.580   126271167.468 6     -1151.232    23663173.720    98210955.227 7      -895.402    23663174.120    98210957.228 7      -895.402
G04  22380075.120   117608092.575 7      5609.083    22380073.820   117608092.586 5      5609.083    22380085.820    91642718.215 5      4370.714    22380086.120    91642726.220 7      4370.714
R16  23411864.180   125061958.319 6      -420.144    23411859.600   125061958.323 6      -420.144    23411886.800    97270493.755 6      -326.779    23411887.200    97270494.749 6      -326.779
G09  24166824.480   126997538.650 6      6263.449    24166823.480   126997538.647 6      6263.449    24166852.620    98959201.037 6      4880.609    24166852.560    98959241.041 7      4880.609
> 2025 04 04 17 46 23.0000000  0 14
G02  22798511.140   119806979.718 7      1509.646    22798509.380   119806979.726 6      1509.646    22798515.760    93356106.992 5      1176.348
G03  20020149.120   105206590.680 8      1843.023    20020148.400   105206590.679 8      1843.023    20020154.700    81979185.306 8      1436.122    20020155.580    81979190.308 8      1436.122
G14  22227228.900   116804857.926 6      2094.491    22227227.880   116804857.934 2      2094.491    22227236.200    91016792.309 2      1632.071    22227237.040    91016821.315 6      1632.071
R03  19872368.120   106378342.873 7      1627.940    19872368.700   106378342.904 7      1627.940    19872379.100    82738755.825 8      1266.176    19872379.200    82738754.824 8      1266.176
G01  21246624.520   111651760.490 7      2033.116    21246623.620   111651760.492 6      2033.116    21246629.020    87001390.472 6      1584.246    21246629.200    87001391.478 8      1584.246
R04  20020407.440   107208374.965 7      5596.565    20020408.340   107208375.002 7      5596.565    20020421.540    83384351.838 8      4352.884    20020420.940    83384351.842 8      4352.884
R18  20417742.900   108991290.118 7      3018.693    20417742.320   108991290.113 7      3018.693    20417752.360    84771048.606 8      2347.872    20417752.700    84771050.610 8      2347.872
G17  22403440.800   117730880.728 7      5356.515    22403439.960   117730880.730 6      5356.515    22403445.360    91738365.858 6      4173.908    22403446.420    91738367.859 7      4173.908
G08  22783862.880   119729996.386 7      -206.808    22783861.860   119729996.397 7      -206.808    22783875.680    93296150.638 7      -161.149    22783876.460    93296155.644 7      -161.149
R17  22393030.120   119829622.145 7      1047.663    22393030.720   119829622.160 7      1047.663    22393047.140    93200890.262 7       814.849    22393047.180    93200888.260 7       814.849
R02  23663376.740   126272318.940 7     -1151.316    23663376.460   126272318.935 6     -1151.316    23663389.480    98211850.806 7      -895.468    23663390.120    98211852.810 7      -895.468
G04  22379007.660   117602483.571 7      5608.967    22379006.380   117602483.579 5      5608.967    22379018.640    91638347.572 5      4370.624    22379018.920    91638355.584 7      4370.624
R16  23411942.900   125062378.480 6      -420.004    23411938.640   125062378.484 6      -420.004    23411965.380    97270820.510 7      -326.670    23411966.120    97270821.508 7      -326.670
G09  24165632.620   126991275.323 6      6263.432    24165631.320   126991275.328 6      6263.432    24165660.820    98954320.555 6      4880.597    24165660.720    98954360.562 7      4880.597
> 2025 04 04 17 46 24.0000000  0 14
G02  22798224.080   119805469.999 7      1509.654    22798222.080   119805470.004 6      1509.654    22798228.400    93354930.587 5      1176.354
G03  20019798.600   105204747.804 8      1842.548    20019797.640   105204747.809 8      1842.548    20019803.980    81977749.310 8      1435.751    20019804.700    81977754.310 8      1435.751
G14  22226830.600   116802763.451 6      2094.046    22226829.420   116802763.458 2      2094.046    22226837.600    91015160.252 2      1631.725    22226838.100    91015189.252 6      1631.725
R03  19872064.060   106376715.187 7      1627.170    19872064.500   106376715.215 7      1627.170    19872075.040    82737489.851 8      1265.577    19872075.060    82737488.852 8      1265.577
G01  21246237.800   111649727.311 7      2033.044    21246236.840   111649727.314 6      2033.044    21246242.140    86999806.180 6      1584.190    21246242.300    86999807.191 8      1584.190
R04  20019362.340   107202778.636 8      5595.965    20019363.280   107202778.667 7      5595.965    20019376.460    83379999.144 8      4352.418    20019376.100    83379999.150 8      4352.418
R18  20417177.160   108988271.446 7      3018.474    20417176.540   108988271.439 7      3018.474    20417186.860    84768700.752 8      2347.702    20417187.040    84768702.752 8      2347.702
G17  22402421.600   117725524.199 7      5356.248    22402420.680   117725524.202 6      5356.248    22402426.280    91734191.944 6      4173.700    22402426.740    91734193.951 7      4173.700
G08  22783902.300   119730203.180 7      -207.010    22783901.260   119730203.193 7      -207.010    22783915.040    93296311.770 7      -161.306    22783915.760    93296316.776 7      -161.306
R17  22392834.820   119828574.672 7      1047.242    22392835.220   119828574.684 7      1047.242    22392851.440    93200075.558 7       814.521    22392851.260    93200073.556 7       814.521
R02  23663592.140   126273470.402 7     -1151.727    23663592.300   126273470.389 6     -1151.727    23663605.080    98212746.390 7      -895.787    23663605.660    98212748.396 7      -895.787
G04  22377940.280   117596874.494 7      5608.838    22377939.000   117596874.509 5      5608.838    22377951.280    91633976.881 5      4370.523    22377951.700    91633984.895 7      4370.523
R16  23412020.920   125062798.430 6      -419.980    23412017.040   125062798.423 6      -419.980    23412044.120    97271147.102 6      -326.651    23412044.600    97271148.100 7      -326.651
G09  24164440.560   126985011.620 6      6263.620    24164439.520   126985011.612 6      6263.620    24164468.740    98949439.770 6      4880.743    24164468.880    98949479.785 7      4880.743
> 2025 04 04 17 46 25.0000000  0 14
G02  22797936.880   119803960.601 7      1509.238    22797934.920   119803960.603 6      1509.238    22797941.320    93353754.431 6      1176.030
G03  20019447.960   105202905.680 8      1841.649    20019447.140   105202905.685 8      1841.649    20019453.460    81976313.889 8      1435.051    20019454.160    81976318.891 8      1435.051
G14  22226432.660   116800669.776 6      2093.123    22226431.040   116800669.784 2      2093.123    22226439.020    91013528.817 2      1631.005    22226439.980    91013557.827 6      1631.005
R03  19871760.120   106375088.619 7      1625.871    19871760.720   106375088.645 7      1625.871    19871771.240    82736224.745 8      1264.566    19871771.080    82736223.748 8      1264.566
G01  21245850.940   111647694.501 7      2032.596    21245849.960   111647694.503 6      2032.596    21245855.200    86998222.177 6      1583.841    21245855.460    86998223.185 8      1583.841
R04  20018317.800   107197183.255 8      5594.778    20018318.540   107197183.288 7      5594.778    20018331.620    83375647.195 8      4351.494    20018330.980    83375647.199 8      4351.494
R18  20416611.900   108985253.262 7      3017.906    20416611.240   108985253.255 7      3017.906    20416621.540    84766353.280 8      2347.260    20416621.680    84766355.280 8      2347.260
G17  22401402.400   117720168.070 7      5355.974    22401401.520   117720168.070 6      5355.974    22401407.000    91730018.337 6      4173.486    22401407.660    91730020.337 7      4173.486
G08  22783941.760   119730410.507 7      -207.675    22783940.740   119730410.514 7      -207.675    22783954.480    93296473.315 7      -161.825    22783955.180    93296478.317 7      -161.825
R17  22392638.940   119827527.768 7      1046.573    22392639.820   119827527.777 7      1046.573    22392655.380    93199261.293 7       814.001    22392655.820    93199259.289 7       814.001
R02  23663807.860   126274622.302 6     -1152.202    23663807.920   126274622.297 6     -1152.202    23663820.860    98213642.320 7      -896.157    23663821.580    98213644.324 7      -896.157
G04  22376873.060   117591265.907 7      5608.332    22376871.820   117591265.923 5      5608.332    22376884.000    91629606.568 5      4370.129    22376884.280    91629614.580 7      4370.129
R16  23412099.920   125063218.695 6      -420.535    23412096.240   125063218.691 6      -420.535    23412122.380    97271473.958 6      -327.083    23412123.240    97271474.948 7      -327.083
G09  24163248.660   126978748.146 6      6263.187    24163248.140   126978748.132 6      6263.187    24163276.580    98944559.170 6      4880.406    24163276.420    98944599.172 7      4880.406
> 2025 04 04 17 46 26.0000000  0 14
G02  22797649.640   119802451.352 7      1509.052    22797647.700   119802451.365 5      1509.052    22797654.080    93352578.397 6      1175.885
G03  20019097.500   105201064.080 8      1841.292    20019096.760   105201064.084 8      1841.292    20019103.000    81974878.879 8      1434.773    20019103.820    81974883.879 8      1434.773
G14  22226034.200   116798576.709 6      2092.647    22226032.720   116798576.716 2      2092.647    22226040.720    91011897.858 2      1630.634    22226041.260    91011926.876 6      1630.634
R03  19871456.360   106373462.972 7      1625.178    19871457.160   106373462.993 7      1625.178    19871467.480    82734960.351 8      1264.028    19871467.500    82734959.354 8      1264.028
G01  21245463.920   111645661.879 7      2032.443    21245463.080   111645661.884 6      2032.443    21245468.460    86996638.319 6      1583.722    21245468.680    86996639.328 8      1583.722
R04  20017272.820   107191588.644 8      5594.135    20017273.560   107191588.681 7      5594.135    20017286.700    83371295.844 8      4350.994    20017286.020    83371295.846 8      4350.994
R18  20416046.620   108982235.396 7      3017.594    20416045.840   108982235.394 7      3017.594    20416056.260    84764006.055 8      2347.017    20416056.380    84764008.059 8      2347.017
G17  22400383.360   117714812.233 7      5355.642    22400382.300   117714812.235 6      5355.642    22400387.780    91725844.963 6      4173.228    22400388.220    91725846.970 7      4173.228
G08  22783981.220   119730618.154 7      -207.834    22783980.160   119730618.162 7      -207.834    22783994.040    93296635.116 7      -161.948    22783994.460    93296640.114 7      -161.948
R17  22392443.620   119826481.239 7      1046.265    22392444.180   119826481.253 7      1046.265    22392460.460    93198447.319 7       813.762    22392460.080    93198445.318 7       813.762
R02  23664024.300   126275774.548 6     -1152.410    23664023.720   126275774.544 6     -1152.410    23664037.000    98214538.518 7      -896.319    23664037.500    98214540.516 7      -896.319
G04  22375806.020   117585657.644 7      5608.094    22375804.620   117585657.654 5      5608.094    22375816.820    91625236.501 5      4369.943    22375817.360    91625244.507 8      4369.943
R16  23412178.500   125063639.069 6      -420.532    23412174.780   125063639.081 6      -420.532    23412200.600    97271800.877 6      -327.080    23412202.180    97271801.873 7      -327.080
G09  24162056.700   126972484.627 6      6263.459    24162056.600   126972484.613 6      6263.459    24162084.180    98939678.534 6      4880.617    24162084.420    98939718.553 7      4880.617
